{"type":"FeatureCollection", "features": [
{"type":"Feature","geometry":{"type":"Point","coordinates":[99.52900241178098,16.4729969705553]},"properties":{"ObjectID":2000,"CITY_NAME":"Kamphaeng Phet","GMI_ADMIN":"THA-KPH","ADMIN_NAME":"Kamphaeng Phet","FIPS_CNTRY":"TH","CNTRY_NAME":"Thailand","STATUS":"Provincial capital","POP":58787,"POP_RANK":6,"POP_CLASS":"50,000 to 99,999","PORT_ID":0,"LABEL_FLAG":1},"id":2001},
{"type":"Feature","geometry":{"type":"Point","coordinates":[12.189996293318304,-5.556995944764289]},"properties":{"ObjectID":2324,"CITY_NAME":"Cabinda","GMI_ADMIN":"AGO-CBN","ADMIN_NAME":"Cabinda","FIPS_CNTRY":"AO","CNTRY_NAME":"Angola","STATUS":"Provincial capital","POP":66020,"POP_RANK":6,"POP_CLASS":"50,000 to 99,999","PORT_ID":46490,"LABEL_FLAG":1},"id":2002},
{"type":"Feature","geometry":{"type":"Point","coordinates":[100.34900141267573,16.439003979247275]},"properties":{"ObjectID":2001,"CITY_NAME":"Phichit","GMI_ADMIN":"THA-PHC","ADMIN_NAME":"Phichit","FIPS_CNTRY":"TH","CNTRY_NAME":"Thailand","STATUS":"Provincial capital","POP":35760,"POP_RANK":7,"POP_CLASS":"Less than 50,000","PORT_ID":0,"LABEL_FLAG":1},"id":2003},
{"type":"Feature","geometry":{"type":"Point","coordinates":[15.783300357294763,-17.049995923206353]},"properties":{"ObjectID":2325,"CITY_NAME":"Onjiva","GMI_ADMIN":"AGO-CUN","ADMIN_NAME":"Cunene","FIPS_CNTRY":"AO","CNTRY_NAME":"Angola","STATUS":"Provincial capital","POP":10169,"POP_RANK":7,"POP_CLASS":"Less than 50,000","PORT_ID":0,"LABEL_FLAG":0},"id":2004},
{"type":"Feature","geometry":{"type":"Point","coordinates":[24.830001408414265,-28.659995992788343]},"properties":{"ObjectID":2432,"CITY_NAME":"Kimberley","GMI_ADMIN":"ZAF-NCP","ADMIN_NAME":"Northern Cape","FIPS_CNTRY":"SF","CNTRY_NAME":"South Africa","STATUS":"Provincial capital","POP":142089,"POP_RANK":5,"POP_CLASS":"100,000 to 249,999","PORT_ID":0,"LABEL_FLAG":0},"id":2005},
{"type":"Feature","geometry":{"type":"Point","coordinates":[105.43799742517243,10.382004021839343]},"properties":{"ObjectID":2108,"CITY_NAME":"Long Xuyen","GMI_ADMIN":"VNM-AGI","ADMIN_NAME":"An Giang","FIPS_CNTRY":"VM","CNTRY_NAME":"Vietnam","STATUS":"Provincial capital","POP":158153,"POP_RANK":5,"POP_CLASS":"100,000 to 249,999","PORT_ID":0,"LABEL_FLAG":0},"id":2006},
{"type":"Feature","geometry":{"type":"Point","coordinates":[92.83333531707504,56.01666599307908]},"properties":{"ObjectID":2216,"CITY_NAME":"Krasnoyarsk","GMI_ADMIN":"RUS-KRA","ADMIN_NAME":"Krasnoyarskiy kray","FIPS_CNTRY":"RS","CNTRY_NAME":"Russia","STATUS":"Provincial capital","POP":927200,"POP_RANK":3,"POP_CLASS":"500,000 to 999,999","PORT_ID":0,"LABEL_FLAG":0},"id":2007},
{"type":"Feature","geometry":{"type":"Point","coordinates":[100.1340004092917,15.701003951733496]},"properties":{"ObjectID":2002,"CITY_NAME":"Nakhon Sawan","GMI_ADMIN":"THA-NSA","ADMIN_NAME":"Nakhon Sawan","FIPS_CNTRY":"TH","CNTRY_NAME":"Thailand","STATUS":"Provincial capital","POP":-999,"POP_RANK":7,"POP_CLASS":"Less than 50,000","PORT_ID":0,"LABEL_FLAG":1},"id":2008},
{"type":"Feature","geometry":{"type":"Point","coordinates":[28.05599744630584,-28.878003006839084]},"properties":{"ObjectID":2433,"CITY_NAME":"Hlotse","GMI_ADMIN":"LSO-LER","ADMIN_NAME":"Leribe","FIPS_CNTRY":"LT","CNTRY_NAME":"Lesotho","STATUS":"Provincial capital","POP":47675,"POP_RANK":7,"POP_CLASS":"Less than 50,000","PORT_ID":0,"LABEL_FLAG":0},"id":2009},
{"type":"Feature","geometry":{"type":"Point","coordinates":[13.406004309673136,-12.576995952201019]},"properties":{"ObjectID":2326,"CITY_NAME":"Benguela","GMI_ADMIN":"AGO-BNG","ADMIN_NAME":"Benguela","FIPS_CNTRY":"AO","CNTRY_NAME":"Angola","STATUS":"Provincial capital","POP":151226,"POP_RANK":5,"POP_CLASS":"100,000 to 249,999","PORT_ID":46600,"LABEL_FLAG":1},"id":2010},
{"type":"Feature","geometry":{"type":"Point","coordinates":[105.08499943302049,10.007001005608462]},"properties":{"ObjectID":2109,"CITY_NAME":"Rach Gia","GMI_ADMIN":"VNM-KGI","ADMIN_NAME":"Kien Giang","FIPS_CNTRY":"VM","CNTRY_NAME":"Vietnam","STATUS":"Provincial capital","POP":228356,"POP_RANK":5,"POP_CLASS":"100,000 to 249,999","PORT_ID":0,"LABEL_FLAG":0},"id":2011},
{"type":"Feature","geometry":{"type":"Point","coordinates":[106.41300331466554,10.530999054587923]},"properties":{"ObjectID":2110,"CITY_NAME":"Tan An","GMI_ADMIN":"VNM-LAN","ADMIN_NAME":"Long An","FIPS_CNTRY":"VM","CNTRY_NAME":"Vietnam","STATUS":"Provincial capital","POP":64801,"POP_RANK":6,"POP_CLASS":"50,000 to 99,999","PORT_ID":0,"LABEL_FLAG":0},"id":2012},
{"type":"Feature","geometry":{"type":"Point","coordinates":[15.735996356903511,-12.760002013976441]},"properties":{"ObjectID":2327,"CITY_NAME":"Huambo","GMI_ADMIN":"AGO-HUA","ADMIN_NAME":"Huambo","FIPS_CNTRY":"AO","CNTRY_NAME":"Angola","STATUS":"Provincial capital","POP":226145,"POP_RANK":5,"POP_CLASS":"100,000 to 249,999","PORT_ID":0,"LABEL_FLAG":1},"id":2013},
{"type":"Feature","geometry":{"type":"Point","coordinates":[100.91400333366263,14.513004044673368]},"properties":{"ObjectID":2003,"CITY_NAME":"Saraburi","GMI_ADMIN":"THA-SRB","ADMIN_NAME":"Saraburi","FIPS_CNTRY":"TH","CNTRY_NAME":"Thailand","STATUS":"Provincial capital","POP":-999,"POP_RANK":7,"POP_CLASS":"Less than 50,000","PORT_ID":0,"LABEL_FLAG":1},"id":2014},
{"type":"Feature","geometry":{"type":"Point","coordinates":[91.44299738170528,53.71900200606301]},"properties":{"ObjectID":2217,"CITY_NAME":"Abakan","GMI_ADMIN":"RUS-KHK","ADMIN_NAME":"Respublika Khakasiya","FIPS_CNTRY":"RS","CNTRY_NAME":"Russia","STATUS":"Provincial capital","POP":167289,"POP_RANK":5,"POP_CLASS":"100,000 to 249,999","PORT_ID":0,"LABEL_FLAG":0},"id":2015},
{"type":"Feature","geometry":{"type":"Point","coordinates":[105.63599729936001,10.467000069769428]},"properties":{"ObjectID":2111,"CITY_NAME":"Cao Lanh","GMI_ADMIN":"VNM-DTH","ADMIN_NAME":"Dong Thap","FIPS_CNTRY":"VM","CNTRY_NAME":"Vietnam","STATUS":"Provincial capital","POP":-999,"POP_RANK":7,"POP_CLASS":"Less than 50,000","PORT_ID":0,"LABEL_FLAG":0},"id":2016},
{"type":"Feature","geometry":{"type":"Point","coordinates":[13.491999382452946,-14.919002940496926]},"properties":{"ObjectID":2328,"CITY_NAME":"Lubango","GMI_ADMIN":"AGO-HUI","ADMIN_NAME":"Huila","FIPS_CNTRY":"AO","CNTRY_NAME":"Angola","STATUS":"Provincial capital","POP":102541,"POP_RANK":5,"POP_CLASS":"100,000 to 249,999","PORT_ID":0,"LABEL_FLAG":0},"id":2017},
{"type":"Feature","geometry":{"type":"Point","coordinates":[101.21599843467621,14.200001963561558]},"properties":{"ObjectID":2004,"CITY_NAME":"Nakhon Nayok","GMI_ADMIN":"THA-NNA","ADMIN_NAME":"Nakhon Nayok","FIPS_CNTRY":"TH","CNTRY_NAME":"Thailand","STATUS":"Provincial capital","POP":21309,"POP_RANK":7,"POP_CLASS":"Less than 50,000","PORT_ID":0,"LABEL_FLAG":1},"id":2018},
{"type":"Feature","geometry":{"type":"Point","coordinates":[26.225001349426922,-29.117997007249897]},"properties":{"ObjectID":2434,"CITY_NAME":"Bloemfontein","GMI_ADMIN":"ZAF-OFS","ADMIN_NAME":"Free State","FIPS_CNTRY":"SF","CNTRY_NAME":"South Africa","STATUS":"Provincial capital","POP":463064,"POP_RANK":4,"POP_CLASS":"250,000 to 499,999","PORT_ID":0,"LABEL_FLAG":0},"id":2019},
{"type":"Feature","geometry":{"type":"Point","coordinates":[94.38599733199547,51.7100040732584]},"properties":{"ObjectID":2218,"CITY_NAME":"Kyzyl","GMI_ADMIN":"RUS-TUV","ADMIN_NAME":"Respublika Tyva","FIPS_CNTRY":"RS","CNTRY_NAME":"Russia","STATUS":"Provincial capital","POP":108240,"POP_RANK":5,"POP_CLASS":"100,000 to 249,999","PORT_ID":0,"LABEL_FLAG":0},"id":2020},
{"type":"Feature","geometry":{"type":"Point","coordinates":[106.36700431840958,10.353996078028285]},"properties":{"ObjectID":2112,"CITY_NAME":"My Tho","GMI_ADMIN":"VNM-TGI","ADMIN_NAME":"Tien Giang","FIPS_CNTRY":"VM","CNTRY_NAME":"Vietnam","STATUS":"Provincial capital","POP":122310,"POP_RANK":5,"POP_CLASS":"100,000 to 249,999","PORT_ID":0,"LABEL_FLAG":0},"id":2021},
{"type":"Feature","geometry":{"type":"Point","coordinates":[12.150000382278137,-15.166664957217268]},"properties":{"ObjectID":2329,"CITY_NAME":"Namibe","GMI_ADMIN":"AGO-NAM","ADMIN_NAME":"Namibe","FIPS_CNTRY":"AO","CNTRY_NAME":"Angola","STATUS":"Provincial capital","POP":80149,"POP_RANK":6,"POP_CLASS":"50,000 to 99,999","PORT_ID":46610,"LABEL_FLAG":1},"id":2022},
{"type":"Feature","geometry":{"type":"Point","coordinates":[100.53330337698523,14.01669902410178]},"properties":{"ObjectID":2005,"CITY_NAME":"Pathum Thani","GMI_ADMIN":"THA-PTH","ADMIN_NAME":"Pathum Thani","FIPS_CNTRY":"TH","CNTRY_NAME":"Thailand","STATUS":"Provincial capital","POP":-999,"POP_RANK":7,"POP_CLASS":"Less than 50,000","PORT_ID":0,"LABEL_FLAG":1},"id":2023},
{"type":"Feature","geometry":{"type":"Point","coordinates":[27.753003320442588,-29.15299795952522]},"properties":{"ObjectID":2435,"CITY_NAME":"Teyateyaneng","GMI_ADMIN":"LSO-BER","ADMIN_NAME":"Berea","FIPS_CNTRY":"LT","CNTRY_NAME":"Lesotho","STATUS":"Provincial capital","POP":5115,"POP_RANK":7,"POP_CLASS":"Less than 50,000","PORT_ID":0,"LABEL_FLAG":0},"id":2024},
{"type":"Feature","geometry":{"type":"Point","coordinates":[105.9640022944852,10.256003936418114]},"properties":{"ObjectID":2113,"CITY_NAME":"Vinh Long","GMI_ADMIN":"VNM-VLN","ADMIN_NAME":"Vinh Long","FIPS_CNTRY":"VM","CNTRY_NAME":"Vietnam","STATUS":"Provincial capital","POP":103314,"POP_RANK":5,"POP_CLASS":"100,000 to 249,999","PORT_ID":0,"LABEL_FLAG":1},"id":2025},
{"type":"Feature","geometry":{"type":"Point","coordinates":[16.146000325409688,-20.10799808042079]},"properties":{"ObjectID":2330,"CITY_NAME":"Outjo","GMI_ADMIN":"NAM-OUT","ADMIN_NAME":"Outjo","FIPS_CNTRY":"WA","CNTRY_NAME":"Namibia","STATUS":"Provincial capital","POP":6557,"POP_RANK":7,"POP_CLASS":"Less than 50,000","PORT_ID":0,"LABEL_FLAG":1},"id":2026},
{"type":"Feature","geometry":{"type":"Point","coordinates":[100.51985733323616,13.848039071696977]},"properties":{"ObjectID":2006,"CITY_NAME":"Nonthaburi","GMI_ADMIN":"THA-NNT","ADMIN_NAME":"Nonthaburi","FIPS_CNTRY":"TH","CNTRY_NAME":"Thailand","STATUS":"Provincial capital","POP":-999,"POP_RANK":7,"POP_CLASS":"Less than 50,000","PORT_ID":0,"LABEL_FLAG":1},"id":2027},
{"type":"Feature","geometry":{"type":"Point","coordinates":[92.06900137844517,49.98400206257147]},"properties":{"ObjectID":2219,"CITY_NAME":"Ulaangom","GMI_ADMIN":"MNG-UVS","ADMIN_NAME":"Uvs","FIPS_CNTRY":"MG","CNTRY_NAME":"Mongolia","STATUS":"Provincial capital","POP":28085,"POP_RANK":7,"POP_CLASS":"Less than 50,000","PORT_ID":0,"LABEL_FLAG":0},"id":2028},
{"type":"Feature","geometry":{"type":"Point","coordinates":[27.49200332080258,-29.30799607748958]},"properties":{"ObjectID":2436,"CITY_NAME":"Maseru","GMI_ADMIN":"LSO-MAS","ADMIN_NAME":"Maseru","FIPS_CNTRY":"LT","CNTRY_NAME":"Lesotho","STATUS":"National and provincial capital","POP":118355,"POP_RANK":5,"POP_CLASS":"100,000 to 249,999","PORT_ID":0,"LABEL_FLAG":1},"id":2029},
{"type":"Feature","geometry":{"type":"Point","coordinates":[16.647003427061776,-20.464001917755787]},"properties":{"ObjectID":2331,"CITY_NAME":"Otjiwarongo","GMI_ADMIN":"NAM-OTJ","ADMIN_NAME":"Otjiwarongo","FIPS_CNTRY":"WA","CNTRY_NAME":"Namibia","STATUS":"Provincial capital","POP":21224,"POP_RANK":7,"POP_CLASS":"Less than 50,000","PORT_ID":0,"LABEL_FLAG":1},"id":2030},
{"type":"Feature","geometry":{"type":"Point","coordinates":[106.37499635172352,10.23499793718891]},"properties":{"ObjectID":2114,"CITY_NAME":"Truc Giang","GMI_ADMIN":"VNM-BTR","ADMIN_NAME":"Ben Tre","FIPS_CNTRY":"VM","CNTRY_NAME":"Vietnam","STATUS":"Provincial capital","POP":59442,"POP_RANK":6,"POP_CLASS":"50,000 to 99,999","PORT_ID":0,"LABEL_FLAG":0},"id":2031},
{"type":"Feature","geometry":{"type":"Point","coordinates":[100.15800331758632,49.63699805403406]},"properties":{"ObjectID":2220,"CITY_NAME":"Moron","GMI_ADMIN":"MNG-HVS","ADMIN_NAME":"Hovsgol","FIPS_CNTRY":"MG","CNTRY_NAME":"Mongolia","STATUS":"Provincial capital","POP":27690,"POP_RANK":7,"POP_CLASS":"Less than 50,000","PORT_ID":0,"LABEL_FLAG":0},"id":2032},
{"type":"Feature","geometry":{"type":"Point","coordinates":[100.51667144183207,13.750001918531547]},"properties":{"ObjectID":2007,"CITY_NAME":"Bangkok","GMI_ADMIN":"THA-KTH","ADMIN_NAME":"Krung Thep","FIPS_CNTRY":"TH","CNTRY_NAME":"Thailand","STATUS":"National and provincial capital","POP":5104476,"POP_RANK":1,"POP_CLASS":"5,000,000 and greater","PORT_ID":57450,"LABEL_FLAG":0},"id":2033},
{"type":"Feature","geometry":{"type":"Point","coordinates":[105.78400240886016,10.032002938752829]},"properties":{"ObjectID":2115,"CITY_NAME":"Can Tho","GMI_ADMIN":"VNM-CTH","ADMIN_NAME":"Can Tho","FIPS_CNTRY":"VM","CNTRY_NAME":"Vietnam","STATUS":"Provincial capital","POP":259598,"POP_RANK":4,"POP_CLASS":"250,000 to 499,999","PORT_ID":0,"LABEL_FLAG":1},"id":2034},
{"type":"Feature","geometry":{"type":"Point","coordinates":[15.950997360287547,-21.436001962065824]},"properties":{"ObjectID":2332,"CITY_NAME":"Omaruru","GMI_ADMIN":"NAM-OMR","ADMIN_NAME":"Omaruru","FIPS_CNTRY":"WA","CNTRY_NAME":"Namibia","STATUS":"Provincial capital","POP":11547,"POP_RANK":7,"POP_CLASS":"Less than 50,000","PORT_ID":0,"LABEL_FLAG":1},"id":2035},
{"type":"Feature","geometry":{"type":"Point","coordinates":[91.63600229712799,48.00500102167608]},"properties":{"ObjectID":2221,"CITY_NAME":"Hovd","GMI_ADMIN":"MNG-HOV","ADMIN_NAME":"Hovd","FIPS_CNTRY":"MG","CNTRY_NAME":"Mongolia","STATUS":"Provincial capital","POP":27924,"POP_RANK":7,"POP_CLASS":"Less than 50,000","PORT_ID":0,"LABEL_FLAG":1},"id":2036},
{"type":"Feature","geometry":{"type":"Point","coordinates":[27.25200038427417,-29.83100403773693]},"properties":{"ObjectID":2437,"CITY_NAME":"Mafeteng","GMI_ADMIN":"LSO-MFT","ADMIN_NAME":"Mafeteng","FIPS_CNTRY":"LT","CNTRY_NAME":"Lesotho","STATUS":"Provincial capital","POP":57059,"POP_RANK":6,"POP_CLASS":"50,000 to 99,999","PORT_ID":0,"LABEL_FLAG":1},"id":2037},
{"type":"Feature","geometry":{"type":"Point","coordinates":[106.33400141583363,9.93400202650873]},"properties":{"ObjectID":2116,"CITY_NAME":"Tra Vinh","GMI_ADMIN":"VNM-TVN","ADMIN_NAME":"Tra Vinh","FIPS_CNTRY":"VM","CNTRY_NAME":"Vietnam","STATUS":"Provincial capital","POP":57408,"POP_RANK":6,"POP_CLASS":"50,000 to 99,999","PORT_ID":0,"LABEL_FLAG":1},"id":2038},
{"type":"Feature","geometry":{"type":"Point","coordinates":[101.07600339620885,13.679000989131238]},"properties":{"ObjectID":2008,"CITY_NAME":"Chachoengsao","GMI_ADMIN":"THA-CHC","ADMIN_NAME":"Chachoengsao","FIPS_CNTRY":"TH","CNTRY_NAME":"Thailand","STATUS":"Provincial capital","POP":49741,"POP_RANK":7,"POP_CLASS":"Less than 50,000","PORT_ID":0,"LABEL_FLAG":1},"id":2039},
{"type":"Feature","geometry":{"type":"Point","coordinates":[15.852996282559815,-21.939002947933655]},"properties":{"ObjectID":2333,"CITY_NAME":"Karibib","GMI_ADMIN":"NAM-KRB","ADMIN_NAME":"Karibib","FIPS_CNTRY":"WA","CNTRY_NAME":"Namibia","STATUS":"Provincial capital","POP":6898,"POP_RANK":7,"POP_CLASS":"Less than 50,000","PORT_ID":0,"LABEL_FLAG":1},"id":2040},
{"type":"Feature","geometry":{"type":"Point","coordinates":[31.14999941516163,-10.266695963946962]},"properties":{"ObjectID":2334,"CITY_NAME":"Kasama","GMI_ADMIN":"ZMB-NRT","ADMIN_NAME":"Northern","FIPS_CNTRY":"ZA","CNTRY_NAME":"Zambia","STATUS":"Provincial capital","POP":91056,"POP_RANK":6,"POP_CLASS":"50,000 to 99,999","PORT_ID":0,"LABEL_FLAG":0},"id":2041},
{"type":"Feature","geometry":{"type":"Point","coordinates":[105.96666641591233,9.600003047768979]},"properties":{"ObjectID":2117,"CITY_NAME":"Soc Trang","GMI_ADMIN":"VNM-STR","ADMIN_NAME":"Soc Trang","FIPS_CNTRY":"VM","CNTRY_NAME":"Vietnam","STATUS":"Provincial capital","POP":114453,"POP_RANK":5,"POP_CLASS":"100,000 to 249,999","PORT_ID":0,"LABEL_FLAG":1},"id":2042},
{"type":"Feature","geometry":{"type":"Point","coordinates":[97.00000236391206,47.80999805655394]},"properties":{"ObjectID":2222,"CITY_NAME":"Uliastay","GMI_ADMIN":"MNG-DZV","ADMIN_NAME":"Dzavhan","FIPS_CNTRY":"MG","CNTRY_NAME":"Mongolia","STATUS":"Other","POP":-999,"POP_RANK":7,"POP_CLASS":"Less than 50,000","PORT_ID":0,"LABEL_FLAG":0},"id":2043},
{"type":"Feature","geometry":{"type":"Point","coordinates":[27.479997315854632,-30.158999931260883]},"properties":{"ObjectID":2438,"CITY_NAME":"Mohales Hoek","GMI_ADMIN":"LSO-MHO","ADMIN_NAME":"Mohale's Hoek","FIPS_CNTRY":"LT","CNTRY_NAME":"Lesotho","STATUS":"Provincial capital","POP":-999,"POP_RANK":7,"POP_CLASS":"Less than 50,000","PORT_ID":0,"LABEL_FLAG":0},"id":2044},
{"type":"Feature","geometry":{"type":"Point","coordinates":[31.617000423904443,-7.9669980172774855]},"properties":{"ObjectID":2335,"CITY_NAME":"Sumbawanga","GMI_ADMIN":"TZA-RUK","ADMIN_NAME":"Rukwa","FIPS_CNTRY":"TZ","CNTRY_NAME":"Tanzania","STATUS":"Provincial capital","POP":89161,"POP_RANK":6,"POP_CLASS":"50,000 to 99,999","PORT_ID":0,"LABEL_FLAG":0},"id":2045},
{"type":"Feature","geometry":{"type":"Point","coordinates":[105.73332336924253,9.283337985864051]},"properties":{"ObjectID":2118,"CITY_NAME":"Bac Lieu","GMI_ADMIN":"VNM-MHA","ADMIN_NAME":"Minh Hai","FIPS_CNTRY":"VM","CNTRY_NAME":"Vietnam","STATUS":"Provincial capital","POP":107911,"POP_RANK":5,"POP_CLASS":"100,000 to 249,999","PORT_ID":0,"LABEL_FLAG":0},"id":2046},
{"type":"Feature","geometry":{"type":"Point","coordinates":[100.60399832709996,13.58800202146898]},"properties":{"ObjectID":2009,"CITY_NAME":"Samut Prakan","GMI_ADMIN":"THA-SPR","ADMIN_NAME":"Samut Prakan","FIPS_CNTRY":"TH","CNTRY_NAME":"Thailand","STATUS":"Provincial capital","POP":388920,"POP_RANK":4,"POP_CLASS":"250,000 to 499,999","PORT_ID":0,"LABEL_FLAG":1},"id":2047},
{"type":"Feature","geometry":{"type":"Point","coordinates":[100.12300236531102,46.69200005404443]},"properties":{"ObjectID":2223,"CITY_NAME":"Bayanhongor","GMI_ADMIN":"MNG-BYN","ADMIN_NAME":"Bayanhongor","FIPS_CNTRY":"MG","CNTRY_NAME":"Mongolia","STATUS":"Provincial capital","POP":23234,"POP_RANK":7,"POP_CLASS":"Less than 50,000","PORT_ID":0,"LABEL_FLAG":1},"id":2048},
{"type":"Feature","geometry":{"type":"Point","coordinates":[27.716004318467863,-30.41099993661964]},"properties":{"ObjectID":2439,"CITY_NAME":"Moyeni","GMI_ADMIN":"LSO-QTH","ADMIN_NAME":"Quthing","FIPS_CNTRY":"LT","CNTRY_NAME":"Lesotho","STATUS":"Provincial capital","POP":24130,"POP_RANK":7,"POP_CLASS":"Less than 50,000","PORT_ID":0,"LABEL_FLAG":0},"id":2049},
{"type":"Feature","geometry":{"type":"Point","coordinates":[33.43899636101847,-8.891001015632154]},"properties":{"ObjectID":2336,"CITY_NAME":"Mbeya","GMI_ADMIN":"TZA-MBE","ADMIN_NAME":"Mbeya","FIPS_CNTRY":"TZ","CNTRY_NAME":"Tanzania","STATUS":"Provincial capital","POP":291649,"POP_RANK":4,"POP_CLASS":"250,000 to 499,999","PORT_ID":0,"LABEL_FLAG":1},"id":2050},
{"type":"Feature","geometry":{"type":"Point","coordinates":[100.27400438387659,13.535999939997215]},"properties":{"ObjectID":2010,"CITY_NAME":"Samut Sakhon","GMI_ADMIN":"THA-SSH","ADMIN_NAME":"Samut Sakhon","FIPS_CNTRY":"TH","CNTRY_NAME":"Thailand","STATUS":"Provincial capital","POP":63498,"POP_RANK":6,"POP_CLASS":"50,000 to 99,999","PORT_ID":0,"LABEL_FLAG":1},"id":2051},
{"type":"Feature","geometry":{"type":"Point","coordinates":[28.890999361214025,-11.2020029855679]},"properties":{"ObjectID":2337,"CITY_NAME":"Mansa","GMI_ADMIN":"ZMB-LUA","ADMIN_NAME":"Luapula","FIPS_CNTRY":"ZA","CNTRY_NAME":"Zambia","STATUS":"Provincial capital","POP":42277,"POP_RANK":7,"POP_CLASS":"Less than 50,000","PORT_ID":0,"LABEL_FLAG":0},"id":2052},
{"type":"Feature","geometry":{"type":"Point","coordinates":[91.1320022864105,29.651004023794417]},"properties":{"ObjectID":2119,"CITY_NAME":"Lhasa","GMI_ADMIN":"CHN-XZN","ADMIN_NAME":"Xizang","FIPS_CNTRY":"CH","CNTRY_NAME":"China","STATUS":"Provincial capital","POP":118721,"POP_RANK":5,"POP_CLASS":"100,000 to 249,999","PORT_ID":0,"LABEL_FLAG":0},"id":2053},
{"type":"Feature","geometry":{"type":"Point","coordinates":[33.64000241135642,-25.0409969501034]},"properties":{"ObjectID":2440,"CITY_NAME":"Xai-Xai","GMI_ADMIN":"MOZ-GAZ","ADMIN_NAME":"Gaza","FIPS_CNTRY":"MZ","CNTRY_NAME":"Mozambique","STATUS":"Provincial capital","POP":127366,"POP_RANK":5,"POP_CLASS":"100,000 to 249,999","PORT_ID":0,"LABEL_FLAG":0},"id":2054},
{"type":"Feature","geometry":{"type":"Point","coordinates":[106.20000036098092,50.24999702097635]},"properties":{"ObjectID":2224,"CITY_NAME":"Suchboatar","GMI_ADMIN":"MNG-SLN","ADMIN_NAME":"Selenge","FIPS_CNTRY":"MG","CNTRY_NAME":"Mongolia","STATUS":"Provincial capital","POP":-999,"POP_RANK":7,"POP_CLASS":"Less than 50,000","PORT_ID":0,"LABEL_FLAG":0},"id":2055},
{"type":"Feature","geometry":{"type":"Point","coordinates":[100.98700231276237,13.367996957718827]},"properties":{"ObjectID":2011,"CITY_NAME":"Chon Buri","GMI_ADMIN":"THA-CBU","ADMIN_NAME":"Chon Buri","FIPS_CNTRY":"TH","CNTRY_NAME":"Thailand","STATUS":"Provincial capital","POP":219164,"POP_RANK":5,"POP_CLASS":"100,000 to 249,999","PORT_ID":0,"LABEL_FLAG":1},"id":2056},
{"type":"Feature","geometry":{"type":"Point","coordinates":[28.634004397090393,-12.968001072778652]},"properties":{"ObjectID":2338,"CITY_NAME":"Ndola","GMI_ADMIN":"ZMB-CPP","ADMIN_NAME":"Copperbelt","FIPS_CNTRY":"ZA","CNTRY_NAME":"Zambia","STATUS":"Provincial capital","POP":394518,"POP_RANK":4,"POP_CLASS":"250,000 to 499,999","PORT_ID":0,"LABEL_FLAG":0},"id":2057},
{"type":"Feature","geometry":{"type":"Point","coordinates":[106.17633040580827,49.90246197537704]},"properties":{"ObjectID":2225,"CITY_NAME":"Darhan","GMI_ADMIN":"MNG-DRH","ADMIN_NAME":"Darhan","FIPS_CNTRY":"MG","CNTRY_NAME":"Mongolia","STATUS":"Provincial capital","POP":74300,"POP_RANK":6,"POP_CLASS":"50,000 to 99,999","PORT_ID":0,"LABEL_FLAG":1},"id":2058},
{"type":"Feature","geometry":{"type":"Point","coordinates":[32.64499831811776,-13.632002930859333]},"properties":{"ObjectID":2339,"CITY_NAME":"Chipata","GMI_ADMIN":"ZMB-EST","ADMIN_NAME":"Eastern","FIPS_CNTRY":"ZA","CNTRY_NAME":"Zambia","STATUS":"Provincial capital","POP":85963,"POP_RANK":6,"POP_CLASS":"50,000 to 99,999","PORT_ID":0,"LABEL_FLAG":0},"id":2059},
{"type":"Feature","geometry":{"type":"Point","coordinates":[104.24799930292923,52.316999954984894]},"properties":{"ObjectID":2226,"CITY_NAME":"Irkutsk","GMI_ADMIN":"RUS-IRK","ADMIN_NAME":"Irkutskaya oblast'","FIPS_CNTRY":"RS","CNTRY_NAME":"Russia","STATUS":"Provincial capital","POP":586695,"POP_RANK":3,"POP_CLASS":"500,000 to 999,999","PORT_ID":0,"LABEL_FLAG":0},"id":2060},
{"type":"Feature","geometry":{"type":"Point","coordinates":[97.38800130833934,25.379001001525793]},"properties":{"ObjectID":2120,"CITY_NAME":"Myitkyina","GMI_ADMIN":"MMR-KST","ADMIN_NAME":"Kachin State","FIPS_CNTRY":"BM","CNTRY_NAME":"Myanmar","STATUS":"Provincial capital","POP":90894,"POP_RANK":6,"POP_CLASS":"50,000 to 99,999","PORT_ID":0,"LABEL_FLAG":0},"id":2061},
{"type":"Feature","geometry":{"type":"Point","coordinates":[28.447002401399796,-14.446998036871653]},"properties":{"ObjectID":2340,"CITY_NAME":"Kabwe","GMI_ADMIN":"ZMB-CNT","ADMIN_NAME":"Central","FIPS_CNTRY":"ZA","CNTRY_NAME":"Zambia","STATUS":"Provincial capital","POP":188979,"POP_RANK":5,"POP_CLASS":"100,000 to 249,999","PORT_ID":0,"LABEL_FLAG":0},"id":2062},
{"type":"Feature","geometry":{"type":"Point","coordinates":[28.217997343368406,-25.730999931661824]},"properties":{"ObjectID":2441,"CITY_NAME":"Pretoria","GMI_ADMIN":"ZAF-GAT","ADMIN_NAME":"Gauteng","FIPS_CNTRY":"SF","CNTRY_NAME":"South Africa","STATUS":"National capital","POP":1619438,"POP_RANK":2,"POP_CLASS":"1,000,000 to 4,999,999","PORT_ID":0,"LABEL_FLAG":0},"id":2063},
{"type":"Feature","geometry":{"type":"Point","coordinates":[99.80000143055193,11.802995984728446]},"properties":{"ObjectID":2012,"CITY_NAME":"Prachuap Khiri Khan","GMI_ADMIN":"THA-PKK","ADMIN_NAME":"Prachuap Khiri Khan","FIPS_CNTRY":"TH","CNTRY_NAME":"Thailand","STATUS":"Provincial capital","POP":33521,"POP_RANK":7,"POP_CLASS":"Less than 50,000","PORT_ID":0,"LABEL_FLAG":1},"id":2064},
{"type":"Feature","geometry":{"type":"Point","coordinates":[107.5650034100843,51.84600301232694]},"properties":{"ObjectID":2227,"CITY_NAME":"Ulan Ude","GMI_ADMIN":"RUS-BUR","ADMIN_NAME":"Respublika Buryatiya","FIPS_CNTRY":"RS","CNTRY_NAME":"Russia","STATUS":"Provincial capital","POP":360278,"POP_RANK":4,"POP_CLASS":"250,000 to 499,999","PORT_ID":0,"LABEL_FLAG":0},"id":2065},
{"type":"Feature","geometry":{"type":"Point","coordinates":[28.170000297413026,-15.429995959678699]},"properties":{"ObjectID":2341,"CITY_NAME":"Lusaka","GMI_ADMIN":"ZMB-LUS","ADMIN_NAME":"Lusaka","FIPS_CNTRY":"ZA","CNTRY_NAME":"Zambia","STATUS":"National and provincial capital","POP":1267440,"POP_RANK":2,"POP_CLASS":"1,000,000 to 4,999,999","PORT_ID":0,"LABEL_FLAG":1},"id":2066},
{"type":"Feature","geometry":{"type":"Point","coordinates":[99.51669936366501,14.033303985418483]},"properties":{"ObjectID":2013,"CITY_NAME":"Kanchanaburi","GMI_ADMIN":"THA-KNC","ADMIN_NAME":"Kanchanaburi","FIPS_CNTRY":"TH","CNTRY_NAME":"Thailand","STATUS":"Provincial capital","POP":63699,"POP_RANK":6,"POP_CLASS":"50,000 to 99,999","PORT_ID":0,"LABEL_FLAG":1},"id":2067},
{"type":"Feature","geometry":{"type":"Point","coordinates":[103.55499941230542,48.81400197859019]},"properties":{"ObjectID":2228,"CITY_NAME":"Bulgan","GMI_ADMIN":"MNG-BLG","ADMIN_NAME":"Bulgan","FIPS_CNTRY":"MG","CNTRY_NAME":"Mongolia","STATUS":"Provincial capital","POP":17348,"POP_RANK":7,"POP_CLASS":"Less than 50,000","PORT_ID":0,"LABEL_FLAG":1},"id":2068},
{"type":"Feature","geometry":{"type":"Point","coordinates":[93.94100134733159,24.78799795706117]},"properties":{"ObjectID":2121,"CITY_NAME":"Imphal","GMI_ADMIN":"IND-MNP","ADMIN_NAME":"Manipur","FIPS_CNTRY":"IN","CNTRY_NAME":"India","STATUS":"Provincial capital","POP":223523,"POP_RANK":5,"POP_CLASS":"100,000 to 249,999","PORT_ID":0,"LABEL_FLAG":0},"id":2069},
{"type":"Feature","geometry":{"type":"Point","coordinates":[29.449998362468765,-23.89200303083499]},"properties":{"ObjectID":2442,"CITY_NAME":"Pietersburg (Polokwane)","GMI_ADMIN":"ZAF-NRT","ADMIN_NAME":"Northern","FIPS_CNTRY":"SF","CNTRY_NAME":"South Africa","STATUS":"Provincial capital","POP":123749,"POP_RANK":5,"POP_CLASS":"100,000 to 249,999","PORT_ID":0,"LABEL_FLAG":0},"id":2070},
{"type":"Feature","geometry":{"type":"Point","coordinates":[33.58700130503493,-16.164000053277334]},"properties":{"ObjectID":2342,"CITY_NAME":"Tete","GMI_ADMIN":"MOZ-TET","ADMIN_NAME":"Tete","FIPS_CNTRY":"MZ","CNTRY_NAME":"Mozambique","STATUS":"Provincial capital","POP":129316,"POP_RANK":5,"POP_CLASS":"100,000 to 249,999","PORT_ID":0,"LABEL_FLAG":1},"id":2071},
{"type":"Feature","geometry":{"type":"Point","coordinates":[101.45799942090399,47.45799892376805]},"properties":{"ObjectID":2229,"CITY_NAME":"Tsetserleg","GMI_ADMIN":"MNG-ARH","ADMIN_NAME":"Arhangay","FIPS_CNTRY":"MG","CNTRY_NAME":"Mongolia","STATUS":"Provincial capital","POP":5876,"POP_RANK":7,"POP_CLASS":"Less than 50,000","PORT_ID":0,"LABEL_FLAG":0},"id":2072},
{"type":"Feature","geometry":{"type":"Point","coordinates":[100.06399833925738,13.81799700274885]},"properties":{"ObjectID":2014,"CITY_NAME":"Nakhon Pathom","GMI_ADMIN":"THA-NPT","ADMIN_NAME":"Nakhon Pathom","FIPS_CNTRY":"TH","CNTRY_NAME":"Thailand","STATUS":"Provincial capital","POP":117927,"POP_RANK":5,"POP_CLASS":"100,000 to 249,999","PORT_ID":0,"LABEL_FLAG":1},"id":2073},
{"type":"Feature","geometry":{"type":"Point","coordinates":[93.61670434455479,22.65000302976989]},"properties":{"ObjectID":2122,"CITY_NAME":"Haka","GMI_ADMIN":"MMR-CST","ADMIN_NAME":"Chin State","FIPS_CNTRY":"BM","CNTRY_NAME":"Myanmar","STATUS":"Provincial capital","POP":-999,"POP_RANK":7,"POP_CLASS":"Less than 50,000","PORT_ID":0,"LABEL_FLAG":0},"id":2074},
{"type":"Feature","geometry":{"type":"Point","coordinates":[32.08627832231218,-28.783961953072474]},"properties":{"ObjectID":2443,"CITY_NAME":"Richards Bay","GMI_ADMIN":"ZAF-KNT","ADMIN_NAME":"KwaZulu/Natal","FIPS_CNTRY":"SF","CNTRY_NAME":"South Africa","STATUS":"Other","POP":252968,"POP_RANK":4,"POP_CLASS":"250,000 to 499,999","PORT_ID":46855,"LABEL_FLAG":0},"id":2075},
{"type":"Feature","geometry":{"type":"Point","coordinates":[102.77199941338533,46.26800096700851]},"properties":{"ObjectID":2230,"CITY_NAME":"Arvayheer","GMI_ADMIN":"MNG-OVR","ADMIN_NAME":"Ovorhangay","FIPS_CNTRY":"MG","CNTRY_NAME":"Mongolia","STATUS":"Provincial capital","POP":-999,"POP_RANK":7,"POP_CLASS":"Less than 50,000","PORT_ID":0,"LABEL_FLAG":0},"id":2076},
{"type":"Feature","geometry":{"type":"Point","coordinates":[92.73330044517755,23.66669706620062]},"properties":{"ObjectID":2123,"CITY_NAME":"Aizawl","GMI_ADMIN":"IND-MZR","ADMIN_NAME":"Mizoram","FIPS_CNTRY":"IN","CNTRY_NAME":"India","STATUS":"Provincial capital","POP":265331,"POP_RANK":4,"POP_CLASS":"250,000 to 499,999","PORT_ID":0,"LABEL_FLAG":0},"id":2077},
{"type":"Feature","geometry":{"type":"Point","coordinates":[28.250001386578276,-28.749995935600893]},"properties":{"ObjectID":2444,"CITY_NAME":"Butha-Buthe","GMI_ADMIN":"LSO-BBU","ADMIN_NAME":"Butha-Buthe","FIPS_CNTRY":"LT","CNTRY_NAME":"Lesotho","STATUS":"Provincial capital","POP":16330,"POP_RANK":7,"POP_CLASS":"Less than 50,000","PORT_ID":0,"LABEL_FLAG":1},"id":2078},
{"type":"Feature","geometry":{"type":"Point","coordinates":[99.90000039249546,13.499999962872215]},"properties":{"ObjectID":2015,"CITY_NAME":"Ratchaburi","GMI_ADMIN":"THA-RTC","ADMIN_NAME":"Ratchaburi","FIPS_CNTRY":"TH","CNTRY_NAME":"Thailand","STATUS":"Provincial capital","POP":92448,"POP_RANK":6,"POP_CLASS":"50,000 to 99,999","PORT_ID":0,"LABEL_FLAG":1},"id":2079},
{"type":"Feature","geometry":{"type":"Point","coordinates":[27.549999385888896,-11.680002038291367]},"properties":{"ObjectID":2343,"CITY_NAME":"Lumumbashi","GMI_ADMIN":"ZAR-SHA","ADMIN_NAME":"Shaba","FIPS_CNTRY":"CG","CNTRY_NAME":"Congo, DRC","STATUS":"Other","POP":1373770,"POP_RANK":2,"POP_CLASS":"1,000,000 to 4,999,999","PORT_ID":0,"LABEL_FLAG":0},"id":2080},
{"type":"Feature","geometry":{"type":"Point","coordinates":[29.078001356904593,-29.291004049894365]},"properties":{"ObjectID":2445,"CITY_NAME":"Mokhotlong","GMI_ADMIN":"LSO-MKH","ADMIN_NAME":"Mokhotlong","FIPS_CNTRY":"LT","CNTRY_NAME":"Lesotho","STATUS":"Provincial capital","POP":8809,"POP_RANK":7,"POP_CLASS":"Less than 50,000","PORT_ID":0,"LABEL_FLAG":1},"id":2081},
{"type":"Feature","geometry":{"type":"Point","coordinates":[106.26499837064907,45.76100404722553]},"properties":{"ObjectID":2231,"CITY_NAME":"Mandalgovi","GMI_ADMIN":"MNG-DND","ADMIN_NAME":"Dundgovi","FIPS_CNTRY":"MG","CNTRY_NAME":"Mongolia","STATUS":"Provincial capital","POP":15430,"POP_RANK":7,"POP_CLASS":"Less than 50,000","PORT_ID":0,"LABEL_FLAG":0},"id":2082},
{"type":"Feature","geometry":{"type":"Point","coordinates":[100.00099837928863,13.412996929125104]},"properties":{"ObjectID":2016,"CITY_NAME":"Samut Songkhram","GMI_ADMIN":"THA-SSN","ADMIN_NAME":"Samut Songkhram","FIPS_CNTRY":"TH","CNTRY_NAME":"Thailand","STATUS":"Provincial capital","POP":35065,"POP_RANK":7,"POP_CLASS":"Less than 50,000","PORT_ID":0,"LABEL_FLAG":1},"id":2083},
{"type":"Feature","geometry":{"type":"Point","coordinates":[93.5499963922376,27.150002983618986]},"properties":{"ObjectID":2124,"CITY_NAME":"Itanagar","GMI_ADMIN":"IND-APD","ADMIN_NAME":"Arunachal Pradesh","FIPS_CNTRY":"IN","CNTRY_NAME":"India","STATUS":"Provincial capital","POP":44971,"POP_RANK":7,"POP_CLASS":"Less than 50,000","PORT_ID":0,"LABEL_FLAG":0},"id":2084},
{"type":"Feature","geometry":{"type":"Point","coordinates":[26.40099636501924,-12.179997013492493]},"properties":{"ObjectID":2344,"CITY_NAME":"Solwezi","GMI_ADMIN":"ZMB-NWS","ADMIN_NAME":"North-Western","FIPS_CNTRY":"ZA","CNTRY_NAME":"Zambia","STATUS":"Provincial capital","POP":4846,"POP_RANK":7,"POP_CLASS":"Less than 50,000","PORT_ID":0,"LABEL_FLAG":0},"id":2085},
{"type":"Feature","geometry":{"type":"Point","coordinates":[104.69999739765868,52.83299703453277]},"properties":{"ObjectID":2232,"CITY_NAME":"Ust' Ordynskiy","GMI_ADMIN":"RUS-UOB","ADMIN_NAME":"Ust'-Ordynskiy Buryatskiy avt.okrug","FIPS_CNTRY":"RS","CNTRY_NAME":"Russia","STATUS":"Provincial capital","POP":14538,"POP_RANK":7,"POP_CLASS":"Less than 50,000","PORT_ID":0,"LABEL_FLAG":0},"id":2086},
{"type":"Feature","geometry":{"type":"Point","coordinates":[99.9500044242678,13.100003949614559]},"properties":{"ObjectID":2017,"CITY_NAME":"Phet Buri","GMI_ADMIN":"THA-PHB","ADMIN_NAME":"Phetchaburi","FIPS_CNTRY":"TH","CNTRY_NAME":"Thailand","STATUS":"Provincial capital","POP":46601,"POP_RANK":7,"POP_CLASS":"Less than 50,000","PORT_ID":0,"LABEL_FLAG":0},"id":2087},
{"type":"Feature","geometry":{"type":"Point","coordinates":[23.131998405420802,-15.276996056897383]},"properties":{"ObjectID":2345,"CITY_NAME":"Mongu","GMI_ADMIN":"ZMB-WST","ADMIN_NAME":"Western","FIPS_CNTRY":"ZA","CNTRY_NAME":"Zambia","STATUS":"Provincial capital","POP":52534,"POP_RANK":6,"POP_CLASS":"50,000 to 99,999","PORT_ID":0,"LABEL_FLAG":0},"id":2088},
{"type":"Feature","geometry":{"type":"Point","coordinates":[30.942189338698082,-29.836376961179067]},"properties":{"ObjectID":2446,"CITY_NAME":"Durban","GMI_ADMIN":"ZAF-KNT","ADMIN_NAME":"KwaZulu/Natal","FIPS_CNTRY":"SF","CNTRY_NAME":"South Africa","STATUS":"Other","POP":3120282,"POP_RANK":2,"POP_CLASS":"1,000,000 to 4,999,999","PORT_ID":46850,"LABEL_FLAG":0},"id":2089},
{"type":"Feature","geometry":{"type":"Point","coordinates":[91.78329632334513,26.133300011070656]},"properties":{"ObjectID":2125,"CITY_NAME":"Dispur","GMI_ADMIN":"IND-ASS","ADMIN_NAME":"Assam","FIPS_CNTRY":"IN","CNTRY_NAME":"India","STATUS":"Provincial capital","POP":-999,"POP_RANK":7,"POP_CLASS":"Less than 50,000","PORT_ID":0,"LABEL_FLAG":0},"id":2090},
{"type":"Feature","geometry":{"type":"Point","coordinates":[25.083297316307092,-17.833302066895627]},"properties":{"ObjectID":2346,"CITY_NAME":"Kasane","GMI_ADMIN":"BWA-CHO","ADMIN_NAME":"Chobe","FIPS_CNTRY":"BC","CNTRY_NAME":"Botswana","STATUS":"Provincial capital","POP":9250,"POP_RANK":7,"POP_CLASS":"Less than 50,000","PORT_ID":0,"LABEL_FLAG":0},"id":2091},
{"type":"Feature","geometry":{"type":"Point","coordinates":[28.70199931582403,-30.117266938251635]},"properties":{"ObjectID":2447,"CITY_NAME":"Qacha's Nek","GMI_ADMIN":"LSO-QNE","ADMIN_NAME":"Qacha's Nek","FIPS_CNTRY":"LT","CNTRY_NAME":"Lesotho","STATUS":"Provincial capital","POP":25573,"POP_RANK":7,"POP_CLASS":"Less than 50,000","PORT_ID":0,"LABEL_FLAG":1},"id":2092},
{"type":"Feature","geometry":{"type":"Point","coordinates":[25.857999302627576,-17.85799802075441]},"properties":{"ObjectID":2347,"CITY_NAME":"Livingstone","GMI_ADMIN":"ZMB-STH","ADMIN_NAME":"Southern","FIPS_CNTRY":"ZA","CNTRY_NAME":"Zambia","STATUS":"Provincial capital","POP":109203,"POP_RANK":5,"POP_CLASS":"100,000 to 249,999","PORT_ID":0,"LABEL_FLAG":0},"id":2093},
{"type":"Feature","geometry":{"type":"Point","coordinates":[129.83000430316744,62.00999991879056]},"properties":{"ObjectID":2233,"CITY_NAME":"Yakutsk","GMI_ADMIN":"RUS-YAK","ADMIN_NAME":"Respublika Sakha(Yakutiya)","FIPS_CNTRY":"RS","CNTRY_NAME":"Russia","STATUS":"Provincial capital","POP":235600,"POP_RANK":5,"POP_CLASS":"100,000 to 249,999","PORT_ID":0,"LABEL_FLAG":0},"id":2094},
{"type":"Feature","geometry":{"type":"Point","coordinates":[108.35000129322012,21.750002939709884]},"properties":{"ObjectID":2018,"CITY_NAME":"Fangcheng Gang","GMI_ADMIN":"CHN-GNG","ADMIN_NAME":"Guangxi","FIPS_CNTRY":"CH","CNTRY_NAME":"China","STATUS":"Other","POP":-999,"POP_RANK":7,"POP_CLASS":"Less than 50,000","PORT_ID":57745,"LABEL_FLAG":0},"id":2095},
{"type":"Feature","geometry":{"type":"Point","coordinates":[94.11599733807421,25.668000008859256]},"properties":{"ObjectID":2126,"CITY_NAME":"Kohima","GMI_ADMIN":"IND-NGL","ADMIN_NAME":"Nagaland","FIPS_CNTRY":"IN","CNTRY_NAME":"India","STATUS":"Provincial capital","POP":92113,"POP_RANK":6,"POP_CLASS":"50,000 to 99,999","PORT_ID":0,"LABEL_FLAG":0},"id":2096},
{"type":"Feature","geometry":{"type":"Point","coordinates":[113.49900035662014,52.04500207684788]},"properties":{"ObjectID":2234,"CITY_NAME":"Chita","GMI_ADMIN":"RUS-CHI","ADMIN_NAME":"Chitinskaya oblast'","FIPS_CNTRY":"RS","CNTRY_NAME":"Russia","STATUS":"Provincial capital","POP":308500,"POP_RANK":4,"POP_CLASS":"250,000 to 499,999","PORT_ID":0,"LABEL_FLAG":0},"id":2097},
{"type":"Feature","geometry":{"type":"Point","coordinates":[23.41800033820519,-19.99400399994753]},"properties":{"ObjectID":2348,"CITY_NAME":"Maun","GMI_ADMIN":"BWA-NGM","ADMIN_NAME":"Ngamiland","FIPS_CNTRY":"BC","CNTRY_NAME":"Botswana","STATUS":"Provincial capital","POP":49945,"POP_RANK":7,"POP_CLASS":"Less than 50,000","PORT_ID":0,"LABEL_FLAG":0},"id":2098},
{"type":"Feature","geometry":{"type":"Point","coordinates":[107.08100143762871,20.94800392737762]},"properties":{"ObjectID":2019,"CITY_NAME":"Hon Gai","GMI_ADMIN":"VNM-QNI","ADMIN_NAME":"Quang Ninh","FIPS_CNTRY":"VM","CNTRY_NAME":"Vietnam","STATUS":"Provincial capital","POP":148066,"POP_RANK":5,"POP_CLASS":"100,000 to 249,999","PORT_ID":57700,"LABEL_FLAG":0},"id":2099},
{"type":"Feature","geometry":{"type":"Point","coordinates":[30.383001355104682,-29.60099995485582]},"properties":{"ObjectID":2448,"CITY_NAME":"Pietermaritzburg (Ulundi)","GMI_ADMIN":"ZAF-KNT","ADMIN_NAME":"KwaZulu/Natal","FIPS_CNTRY":"SF","CNTRY_NAME":"South Africa","STATUS":"Provincial capital","POP":750845,"POP_RANK":3,"POP_CLASS":"500,000 to 999,999","PORT_ID":0,"LABEL_FLAG":0},"id":2100},
{"type":"Feature","geometry":{"type":"Point","coordinates":[91.88333136072632,25.566659967342815]},"properties":{"ObjectID":2127,"CITY_NAME":"Shillong","GMI_ADMIN":"IND-MGH","ADMIN_NAME":"Meghalaya","FIPS_CNTRY":"IN","CNTRY_NAME":"India","STATUS":"Provincial capital","POP":132842,"POP_RANK":5,"POP_CLASS":"100,000 to 249,999","PORT_ID":0,"LABEL_FLAG":0},"id":2101},
{"type":"Feature","geometry":{"type":"Point","coordinates":[127.53333934100104,50.28333304215791]},"properties":{"ObjectID":2235,"CITY_NAME":"Blagoveshchensk","GMI_ADMIN":"RUS-AMU","ADMIN_NAME":"Amurskaya oblast'","FIPS_CNTRY":"RS","CNTRY_NAME":"Russia","STATUS":"Provincial capital","POP":221296,"POP_RANK":5,"POP_CLASS":"100,000 to 249,999","PORT_ID":0,"LABEL_FLAG":0},"id":2102},
{"type":"Feature","geometry":{"type":"Point","coordinates":[27.50000429023413,-21.170996926909396]},"properties":{"ObjectID":2349,"CITY_NAME":"Francistown","GMI_ADMIN":"BWA-NEA","ADMIN_NAME":"North-East","FIPS_CNTRY":"BC","CNTRY_NAME":"Botswana","STATUS":"Provincial capital","POP":89979,"POP_RANK":6,"POP_CLASS":"50,000 to 99,999","PORT_ID":0,"LABEL_FLAG":0},"id":2103},
{"type":"Feature","geometry":{"type":"Point","coordinates":[91.2666963868273,23.81670005991647]},"properties":{"ObjectID":2128,"CITY_NAME":"Agartala","GMI_ADMIN":"IND-TRP","ADMIN_NAME":"Tripura","FIPS_CNTRY":"IN","CNTRY_NAME":"India","STATUS":"Provincial capital","POP":203264,"POP_RANK":5,"POP_CLASS":"100,000 to 249,999","PORT_ID":0,"LABEL_FLAG":0},"id":2104},
{"type":"Feature","geometry":{"type":"Point","coordinates":[104.74700435488191,16.56099902915208]},"properties":{"ObjectID":2020,"CITY_NAME":"Savannakhet","GMI_ADMIN":"LAO-SVN","ADMIN_NAME":"Savannakhet","FIPS_CNTRY":"LA","CNTRY_NAME":"Laos","STATUS":"Provincial capital","POP":66553,"POP_RANK":6,"POP_CLASS":"50,000 to 99,999","PORT_ID":0,"LABEL_FLAG":1},"id":2105},
{"type":"Feature","geometry":{"type":"Point","coordinates":[114.50600135320552,48.06000001221331]},"properties":{"ObjectID":2236,"CITY_NAME":"Choybalsan","GMI_ADMIN":"MNG-DRN","ADMIN_NAME":"Dornod","FIPS_CNTRY":"MG","CNTRY_NAME":"Mongolia","STATUS":"Provincial capital","POP":23,"POP_RANK":7,"POP_CLASS":"Less than 50,000","PORT_ID":0,"LABEL_FLAG":0},"id":2106},
{"type":"Feature","geometry":{"type":"Point","coordinates":[45.283302426682326,-12.783302940589403]},"properties":{"ObjectID":2449,"CITY_NAME":"Mamoutzou","GMI_ADMIN":"MYT","ADMIN_NAME":"Mayotte","FIPS_CNTRY":"MF","CNTRY_NAME":"Mayotte","STATUS":"National and provincial capital","POP":54831,"POP_RANK":6,"POP_CLASS":"50,000 to 99,999","PORT_ID":0,"LABEL_FLAG":0},"id":2107},
{"type":"Feature","geometry":{"type":"Point","coordinates":[26.711001371581915,-22.38900299296367]},"properties":{"ObjectID":2350,"CITY_NAME":"Serowe","GMI_ADMIN":"BWA-CNT","ADMIN_NAME":"Central","FIPS_CNTRY":"BC","CNTRY_NAME":"Botswana","STATUS":"Provincial capital","POP":47419,"POP_RANK":7,"POP_CLASS":"Less than 50,000","PORT_ID":0,"LABEL_FLAG":0},"id":2108},
{"type":"Feature","geometry":{"type":"Point","coordinates":[104.15099741553487,15.787998049363004]},"properties":{"ObjectID":2021,"CITY_NAME":"Yasothon","GMI_ADMIN":"THA-YST","ADMIN_NAME":"Yasothon","FIPS_CNTRY":"TH","CNTRY_NAME":"Thailand","STATUS":"Provincial capital","POP":21643,"POP_RANK":7,"POP_CLASS":"Less than 50,000","PORT_ID":0,"LABEL_FLAG":1},"id":2109},
{"type":"Feature","geometry":{"type":"Point","coordinates":[90.40714232336008,23.709914944082563]},"properties":{"ObjectID":2129,"CITY_NAME":"Dhaka","GMI_ADMIN":"BGD-DAK","ADMIN_NAME":"Dhaka","FIPS_CNTRY":"BG","CNTRY_NAME":"Bangladesh","STATUS":"National and provincial capital","POP":10356500,"POP_RANK":1,"POP_CLASS":"5,000,000 and greater","PORT_ID":0,"LABEL_FLAG":1},"id":2110},
{"type":"Feature","geometry":{"type":"Point","coordinates":[123.96496539026091,47.34400500877841]},"properties":{"ObjectID":2237,"CITY_NAME":"Qiqihar","GMI_ADMIN":"CHN-HLN","ADMIN_NAME":"Heilongjiang","FIPS_CNTRY":"CH","CNTRY_NAME":"China","STATUS":"Other","POP":882364,"POP_RANK":3,"POP_CLASS":"500,000 to 999,999","PORT_ID":0,"LABEL_FLAG":0},"id":2111},
{"type":"Feature","geometry":{"type":"Point","coordinates":[106.42699843319528,15.715997929629303]},"properties":{"ObjectID":2022,"CITY_NAME":"Saravan","GMI_ADMIN":"LAO-SRV","ADMIN_NAME":"Saravan","FIPS_CNTRY":"LA","CNTRY_NAME":"Laos","STATUS":"Provincial capital","POP":5521,"POP_RANK":7,"POP_CLASS":"Less than 50,000","PORT_ID":0,"LABEL_FLAG":1},"id":2112},
{"type":"Feature","geometry":{"type":"Point","coordinates":[90.37400438611841,22.703003970607725]},"properties":{"ObjectID":2130,"CITY_NAME":"Barisal","GMI_ADMIN":"BGD-BRS","ADMIN_NAME":"Barisal","FIPS_CNTRY":"BG","CNTRY_NAME":"Bangladesh","STATUS":"Provincial capital","POP":202242,"POP_RANK":5,"POP_CLASS":"100,000 to 249,999","PORT_ID":0,"LABEL_FLAG":1},"id":2113},
{"type":"Feature","geometry":{"type":"Point","coordinates":[113.28000341932093,46.67900396036438]},"properties":{"ObjectID":2238,"CITY_NAME":"Baruun Urt","GMI_ADMIN":"MNG-SHB","ADMIN_NAME":"Suhbaatar","FIPS_CNTRY":"MG","CNTRY_NAME":"Mongolia","STATUS":"Provincial capital","POP":15805,"POP_RANK":7,"POP_CLASS":"Less than 50,000","PORT_ID":0,"LABEL_FLAG":0},"id":2114},
{"type":"Feature","geometry":{"type":"Point","coordinates":[55.449999364527095,-20.86669796239453]},"properties":{"ObjectID":2450,"CITY_NAME":"Saint-Denis","GMI_ADMIN":"REU","ADMIN_NAME":"Reunion","FIPS_CNTRY":"RE","CNTRY_NAME":"Reunion","STATUS":"National and provincial capital","POP":137195,"POP_RANK":5,"POP_CLASS":"100,000 to 249,999","PORT_ID":47680,"LABEL_FLAG":0},"id":2115},
{"type":"Feature","geometry":{"type":"Point","coordinates":[104.49999930828804,43.45000207728976]},"properties":{"ObjectID":2131,"CITY_NAME":"Dalandzadgad","GMI_ADMIN":"MNG-OMN","ADMIN_NAME":"Omnogovi","FIPS_CNTRY":"MG","CNTRY_NAME":"Mongolia","STATUS":"Provincial capital","POP":15093,"POP_RANK":7,"POP_CLASS":"Less than 50,000","PORT_ID":0,"LABEL_FLAG":0},"id":2116},
{"type":"Feature","geometry":{"type":"Point","coordinates":[31.734000349560745,-0.33499806774816504]},"properties":{"ObjectID":2351,"CITY_NAME":"Masaka","GMI_ADMIN":"UGA-STB","ADMIN_NAME":"South Buganda","FIPS_CNTRY":"UG","CNTRY_NAME":"Uganda","STATUS":"Provincial capital","POP":65373,"POP_RANK":6,"POP_CLASS":"50,000 to 99,999","PORT_ID":0,"LABEL_FLAG":0},"id":2117},
{"type":"Feature","geometry":{"type":"Point","coordinates":[110.11699840528055,44.88499792934257]},"properties":{"ObjectID":2132,"CITY_NAME":"Saynshand","GMI_ADMIN":"MNG-DRG","ADMIN_NAME":"Dornogovi","FIPS_CNTRY":"MG","CNTRY_NAME":"Mongolia","STATUS":"Provincial capital","POP":-999,"POP_RANK":7,"POP_CLASS":"Less than 50,000","PORT_ID":0,"LABEL_FLAG":0},"id":2118},
{"type":"Feature","geometry":{"type":"Point","coordinates":[104.85700233595637,15.238998067239203]},"properties":{"ObjectID":2023,"CITY_NAME":"Ubon Ratchathani","GMI_ADMIN":"THA-URT","ADMIN_NAME":"Ubon Ratchathani","FIPS_CNTRY":"TH","CNTRY_NAME":"Thailand","STATUS":"Provincial capital","POP":122533,"POP_RANK":5,"POP_CLASS":"100,000 to 249,999","PORT_ID":0,"LABEL_FLAG":1},"id":2119},
{"type":"Feature","geometry":{"type":"Point","coordinates":[126.62299834257048,45.755000962009724]},"properties":{"ObjectID":2239,"CITY_NAME":"Harbin","GMI_ADMIN":"CHN-HLN","ADMIN_NAME":"Heilongjiang","FIPS_CNTRY":"CH","CNTRY_NAME":"China","STATUS":"Provincial capital","POP":3229883,"POP_RANK":2,"POP_CLASS":"1,000,000 to 4,999,999","PORT_ID":0,"LABEL_FLAG":0},"id":2120},
{"type":"Feature","geometry":{"type":"Point","coordinates":[31.80799835351019,-1.3220010260715975]},"properties":{"ObjectID":2352,"CITY_NAME":"Bukoba","GMI_ADMIN":"TZA-ZMG","ADMIN_NAME":"Ziwa Magharibi","FIPS_CNTRY":"TZ","CNTRY_NAME":"Tanzania","STATUS":"Provincial capital","POP":70628,"POP_RANK":6,"POP_CLASS":"50,000 to 99,999","PORT_ID":0,"LABEL_FLAG":0},"id":2121},
{"type":"Feature","geometry":{"type":"Point","coordinates":[104.33300428697694,15.113997006667693]},"properties":{"ObjectID":2024,"CITY_NAME":"Sisaket","GMI_ADMIN":"THA-SSK","ADMIN_NAME":"Sisaket","FIPS_CNTRY":"TH","CNTRY_NAME":"Thailand","STATUS":"Provincial capital","POP":44751,"POP_RANK":7,"POP_CLASS":"Less than 50,000","PORT_ID":0,"LABEL_FLAG":1},"id":2122},
{"type":"Feature","geometry":{"type":"Point","coordinates":[55.445004405762226,-4.616999943664108]},"properties":{"ObjectID":2451,"CITY_NAME":"Victoria","GMI_ADMIN":"SYC","ADMIN_NAME":"Seychelles","FIPS_CNTRY":"SE","CNTRY_NAME":"Seychelles","STATUS":"National capital","POP":22881,"POP_RANK":7,"POP_CLASS":"Less than 50,000","PORT_ID":47220,"LABEL_FLAG":0},"id":2123},
{"type":"Feature","geometry":{"type":"Point","coordinates":[111.6489963102114,40.814000957411885]},"properties":{"ObjectID":2133,"CITY_NAME":"Huhot","GMI_ADMIN":"CHN-NMN","ADMIN_NAME":"Nei Mongol","FIPS_CNTRY":"CH","CNTRY_NAME":"China","STATUS":"Provincial capital","POP":774477,"POP_RANK":3,"POP_CLASS":"500,000 to 999,999","PORT_ID":0,"LABEL_FLAG":0},"id":2124},
{"type":"Feature","geometry":{"type":"Point","coordinates":[32.88899735404499,-2.5149960573802654]},"properties":{"ObjectID":2353,"CITY_NAME":"Mwanza","GMI_ADMIN":"TZA-MWN","ADMIN_NAME":"Mwanza","FIPS_CNTRY":"TZ","CNTRY_NAME":"Tanzania","STATUS":"Provincial capital","POP":436801,"POP_RANK":4,"POP_CLASS":"250,000 to 499,999","PORT_ID":0,"LABEL_FLAG":1},"id":2125},
{"type":"Feature","geometry":{"type":"Point","coordinates":[105.86670336392282,14.883300043706125]},"properties":{"ObjectID":2025,"CITY_NAME":"Champasak","GMI_ADMIN":"LAO-CHM","ADMIN_NAME":"Champasak","FIPS_CNTRY":"LA","CNTRY_NAME":"Laos","STATUS":"Provincial capital","POP":12994,"POP_RANK":7,"POP_CLASS":"Less than 50,000","PORT_ID":0,"LABEL_FLAG":1},"id":2126},
{"type":"Feature","geometry":{"type":"Point","coordinates":[49.30958736877352,-12.263382078001706]},"properties":{"ObjectID":2452,"CITY_NAME":"Antsiranana","GMI_ADMIN":"MDG-ANT","ADMIN_NAME":"Antsiranana","FIPS_CNTRY":"MA","CNTRY_NAME":"Madagascar","STATUS":"Provincial capital","POP":82937,"POP_RANK":6,"POP_CLASS":"50,000 to 99,999","PORT_ID":47630,"LABEL_FLAG":1},"id":2127},
{"type":"Feature","geometry":{"type":"Point","coordinates":[106.26300032094964,38.467998035200814]},"properties":{"ObjectID":2134,"CITY_NAME":"Yinchuan","GMI_ADMIN":"CHN-NNG","ADMIN_NAME":"Ningxia","FIPS_CNTRY":"CH","CNTRY_NAME":"China","STATUS":"Provincial capital","POP":475101,"POP_RANK":4,"POP_CLASS":"250,000 to 499,999","PORT_ID":0,"LABEL_FLAG":0},"id":2128},
{"type":"Feature","geometry":{"type":"Point","coordinates":[114.53300133604924,51.16699807474917]},"properties":{"ObjectID":2240,"CITY_NAME":"Aginskoye","GMI_ADMIN":"RUS-AGB","ADMIN_NAME":"Aginskiy Buryatskiy avtonomnyy okrug","FIPS_CNTRY":"RS","CNTRY_NAME":"Russia","STATUS":"Provincial capital","POP":11491,"POP_RANK":7,"POP_CLASS":"Less than 50,000","PORT_ID":0,"LABEL_FLAG":0},"id":2129},
{"type":"Feature","geometry":{"type":"Point","coordinates":[33.42099637245596,-3.6649979376159827]},"properties":{"ObjectID":2354,"CITY_NAME":"Shinyanga","GMI_ADMIN":"TZA-SHN","ADMIN_NAME":"Shinyanga","FIPS_CNTRY":"TZ","CNTRY_NAME":"Tanzania","STATUS":"Provincial capital","POP":107362,"POP_RANK":5,"POP_CLASS":"100,000 to 249,999","PORT_ID":0,"LABEL_FLAG":1},"id":2130},
{"type":"Feature","geometry":{"type":"Point","coordinates":[106.8390002859172,14.8079970356214]},"properties":{"ObjectID":2026,"CITY_NAME":"Attapu","GMI_ADMIN":"LAO-ATT","ADMIN_NAME":"Attapeu","FIPS_CNTRY":"LA","CNTRY_NAME":"Laos","STATUS":"Provincial capital","POP":4297,"POP_RANK":7,"POP_CLASS":"Less than 50,000","PORT_ID":0,"LABEL_FLAG":0},"id":2131},
{"type":"Feature","geometry":{"type":"Point","coordinates":[46.30764644170375,-15.713928022855644]},"properties":{"ObjectID":2453,"CITY_NAME":"Mahajanga","GMI_ADMIN":"MDG-MHJ","ADMIN_NAME":"Mahajanga","FIPS_CNTRY":"MA","CNTRY_NAME":"Madagascar","STATUS":"Provincial capital","POP":154657,"POP_RANK":5,"POP_CLASS":"100,000 to 249,999","PORT_ID":47400,"LABEL_FLAG":1},"id":2132},
{"type":"Feature","geometry":{"type":"Point","coordinates":[101.76499841679995,36.6450030732371]},"properties":{"ObjectID":2135,"CITY_NAME":"Xining","GMI_ADMIN":"CHN-QNG","ADMIN_NAME":"Qinghai","FIPS_CNTRY":"CH","CNTRY_NAME":"China","STATUS":"Provincial capital","POP":767531,"POP_RANK":3,"POP_CLASS":"500,000 to 999,999","PORT_ID":0,"LABEL_FLAG":0},"id":2133},
{"type":"Feature","geometry":{"type":"Point","coordinates":[32.82599739407621,-5.01800391788902]},"properties":{"ObjectID":2355,"CITY_NAME":"Tabora","GMI_ADMIN":"TZA-TAB","ADMIN_NAME":"Tabora","FIPS_CNTRY":"TZ","CNTRY_NAME":"Tanzania","STATUS":"Provincial capital","POP":145292,"POP_RANK":5,"POP_CLASS":"100,000 to 249,999","PORT_ID":0,"LABEL_FLAG":1},"id":2134},
{"type":"Feature","geometry":{"type":"Point","coordinates":[101.37799833173878,14.04899994499599]},"properties":{"ObjectID":2027,"CITY_NAME":"Prachin Buri","GMI_ADMIN":"THA-PBU","ADMIN_NAME":"Prachin Buri","FIPS_CNTRY":"TH","CNTRY_NAME":"Thailand","STATUS":"Provincial capital","POP":32600,"POP_RANK":7,"POP_CLASS":"Less than 50,000","PORT_ID":0,"LABEL_FLAG":1},"id":2135},
{"type":"Feature","geometry":{"type":"Point","coordinates":[49.383297431156194,-18.1666980231818]},"properties":{"ObjectID":2454,"CITY_NAME":"Toamasina","GMI_ADMIN":"MDG-TMS","ADMIN_NAME":"Toamasina","FIPS_CNTRY":"MA","CNTRY_NAME":"Madagascar","STATUS":"Provincial capital","POP":206373,"POP_RANK":5,"POP_CLASS":"100,000 to 249,999","PORT_ID":0,"LABEL_FLAG":1},"id":2136},
{"type":"Feature","geometry":{"type":"Point","coordinates":[132.899994427611,48.816999053139305]},"properties":{"ObjectID":2241,"CITY_NAME":"Birobidzhan","GMI_ADMIN":"RUS-YEV","ADMIN_NAME":"Yevreyskaya avtonomnaya oblast'","FIPS_CNTRY":"RS","CNTRY_NAME":"Russia","STATUS":"Provincial capital","POP":76146,"POP_RANK":6,"POP_CLASS":"50,000 to 99,999","PORT_ID":0,"LABEL_FLAG":0},"id":2137},
{"type":"Feature","geometry":{"type":"Point","coordinates":[103.59999938371166,36.1130040548261]},"properties":{"ObjectID":2136,"CITY_NAME":"Lanzhou","GMI_ADMIN":"CHN-GAN","ADMIN_NAME":"Gansu","FIPS_CNTRY":"CH","CNTRY_NAME":"China","STATUS":"Provincial capital","POP":3200000,"POP_RANK":2,"POP_CLASS":"1,000,000 to 4,999,999","PORT_ID":0,"LABEL_FLAG":0},"id":2138},
{"type":"Feature","geometry":{"type":"Point","coordinates":[103.86399629241711,13.368995982568531]},"properties":{"ObjectID":2028,"CITY_NAME":"Siemreab","GMI_ADMIN":"KHM-SOM","ADMIN_NAME":"Siemreab-Otdar Meanchey","FIPS_CNTRY":"CB","CNTRY_NAME":"Cambodia","STATUS":"Provincial capital","POP":85000,"POP_RANK":6,"POP_CLASS":"50,000 to 99,999","PORT_ID":0,"LABEL_FLAG":0},"id":2139},
{"type":"Feature","geometry":{"type":"Point","coordinates":[23.666697289729257,-6.149997038928297]},"properties":{"ObjectID":2356,"CITY_NAME":"Mbuji-Mayi","GMI_ADMIN":"ZAR-KOR","ADMIN_NAME":"Kasai-Oriental","FIPS_CNTRY":"CG","CNTRY_NAME":"Congo, DRC","STATUS":"Provincial capital","POP":874761,"POP_RANK":3,"POP_CLASS":"500,000 to 999,999","PORT_ID":0,"LABEL_FLAG":0},"id":2140},
{"type":"Feature","geometry":{"type":"Point","coordinates":[47.52800138281461,-18.90800093904663]},"properties":{"ObjectID":2455,"CITY_NAME":"Antananarivo","GMI_ADMIN":"MDG-ANN","ADMIN_NAME":"Antananarivo","FIPS_CNTRY":"MA","CNTRY_NAME":"Madagascar","STATUS":"National and provincial capital","POP":1391433,"POP_RANK":2,"POP_CLASS":"1,000,000 to 4,999,999","PORT_ID":0,"LABEL_FLAG":1},"id":2141},
{"type":"Feature","geometry":{"type":"Point","coordinates":[103.2039993043692,13.088996969516334]},"properties":{"ObjectID":2029,"CITY_NAME":"Batdambang","GMI_ADMIN":"KHM-BTD","ADMIN_NAME":"Batdambang","FIPS_CNTRY":"CB","CNTRY_NAME":"Cambodia","STATUS":"Provincial capital","POP":150444,"POP_RANK":5,"POP_CLASS":"100,000 to 249,999","PORT_ID":0,"LABEL_FLAG":1},"id":2142},
{"type":"Feature","geometry":{"type":"Point","coordinates":[150.833304328409,59.63329795750496]},"properties":{"ObjectID":2242,"CITY_NAME":"Magadan","GMI_ADMIN":"RUS-MAG","ADMIN_NAME":"Magadanskaya oblast'","FIPS_CNTRY":"RS","CNTRY_NAME":"Russia","STATUS":"Provincial capital","POP":95282,"POP_RANK":6,"POP_CLASS":"50,000 to 99,999","PORT_ID":62550,"LABEL_FLAG":0},"id":2143},
{"type":"Feature","geometry":{"type":"Point","coordinates":[112.36123830974262,34.67134798194738]},"properties":{"ObjectID":2137,"CITY_NAME":"Luoyang","GMI_ADMIN":"CHN-HEN","ADMIN_NAME":"Henan","FIPS_CNTRY":"CH","CNTRY_NAME":"China","STATUS":"Other","POP":123144,"POP_RANK":5,"POP_CLASS":"100,000 to 249,999","PORT_ID":0,"LABEL_FLAG":0},"id":2144},
{"type":"Feature","geometry":{"type":"Point","coordinates":[30.51669643067186,-3.1667039689462615]},"properties":{"ObjectID":2357,"CITY_NAME":"Cankuzo","GMI_ADMIN":"BDI-CNK","ADMIN_NAME":"Cankuzo","FIPS_CNTRY":"BY","CNTRY_NAME":"Burundi","STATUS":"Provincial capital","POP":6585,"POP_RANK":7,"POP_CLASS":"Less than 50,000","PORT_ID":0,"LABEL_FLAG":1},"id":2145},
{"type":"Feature","geometry":{"type":"Point","coordinates":[101.28500131437713,12.677004052911974]},"properties":{"ObjectID":2030,"CITY_NAME":"Rayong","GMI_ADMIN":"THA-RYN","ADMIN_NAME":"Rayong","FIPS_CNTRY":"TH","CNTRY_NAME":"Thailand","STATUS":"Provincial capital","POP":-999,"POP_RANK":7,"POP_CLASS":"Less than 50,000","PORT_ID":0,"LABEL_FLAG":1},"id":2146},
{"type":"Feature","geometry":{"type":"Point","coordinates":[29.993004360978006,-3.931001997622105]},"properties":{"ObjectID":2358,"CITY_NAME":"Rutana","GMI_ADMIN":"BDI-RTN","ADMIN_NAME":"Rutana","FIPS_CNTRY":"BY","CNTRY_NAME":"Burundi","STATUS":"Provincial capital","POP":20893,"POP_RANK":7,"POP_CLASS":"Less than 50,000","PORT_ID":0,"LABEL_FLAG":1},"id":2147},
{"type":"Feature","geometry":{"type":"Point","coordinates":[29.611998425015006,-3.9510000358840034]},"properties":{"ObjectID":2359,"CITY_NAME":"Bururi","GMI_ADMIN":"BDI-BUR","ADMIN_NAME":"Bururi","FIPS_CNTRY":"BY","CNTRY_NAME":"Burundi","STATUS":"Provincial capital","POP":19740,"POP_RANK":7,"POP_CLASS":"Less than 50,000","PORT_ID":0,"LABEL_FLAG":1},"id":2148},
{"type":"Feature","geometry":{"type":"Point","coordinates":[143.2474203720826,59.38274692706486]},"properties":{"ObjectID":2243,"CITY_NAME":"Okhotsk","GMI_ADMIN":"RUS-KHA","ADMIN_NAME":"Khabarovskiy kray","FIPS_CNTRY":"RS","CNTRY_NAME":"Russia","STATUS":"Other","POP":5570,"POP_RANK":7,"POP_CLASS":"Less than 50,000","PORT_ID":62540,"LABEL_FLAG":0},"id":2149},
{"type":"Feature","geometry":{"type":"Point","coordinates":[108.88335942892289,34.265700039798475]},"properties":{"ObjectID":2138,"CITY_NAME":"Xi'an","GMI_ADMIN":"CHN-SHA","ADMIN_NAME":"Shaanxi","FIPS_CNTRY":"CH","CNTRY_NAME":"China","STATUS":"Other","POP":3225812,"POP_RANK":2,"POP_CLASS":"1,000,000 to 4,999,999","PORT_ID":0,"LABEL_FLAG":0},"id":2150},
{"type":"Feature","geometry":{"type":"Point","coordinates":[102.11699738410223,12.60600295802799]},"properties":{"ObjectID":2031,"CITY_NAME":"Chanthaburi","GMI_ADMIN":"THA-CHN","ADMIN_NAME":"Chanthaburi","FIPS_CNTRY":"TH","CNTRY_NAME":"Thailand","STATUS":"Provincial capital","POP":99819,"POP_RANK":6,"POP_CLASS":"50,000 to 99,999","PORT_ID":0,"LABEL_FLAG":1},"id":2151},
{"type":"Feature","geometry":{"type":"Point","coordinates":[57.49599629930642,-20.165004056775008]},"properties":{"ObjectID":2456,"CITY_NAME":"Port Louis","GMI_ADMIN":"MUS","ADMIN_NAME":"Mauritius","FIPS_CNTRY":"MP","CNTRY_NAME":"Mauritius","STATUS":"National capital","POP":155226,"POP_RANK":5,"POP_CLASS":"100,000 to 249,999","PORT_ID":47720,"LABEL_FLAG":0},"id":2152},
{"type":"Feature","geometry":{"type":"Point","coordinates":[29.799999445555272,-4.1333039504940645]},"properties":{"ObjectID":2360,"CITY_NAME":"Makamba","GMI_ADMIN":"BDI-MKM","ADMIN_NAME":"Makamba","FIPS_CNTRY":"BY","CNTRY_NAME":"Burundi","STATUS":"Provincial capital","POP":19642,"POP_RANK":7,"POP_CLASS":"Less than 50,000","PORT_ID":0,"LABEL_FLAG":1},"id":2153},
{"type":"Feature","geometry":{"type":"Point","coordinates":[29.619000369596844,-4.8760020590883775]},"properties":{"ObjectID":2361,"CITY_NAME":"Kigoma","GMI_ADMIN":"TZA-KIG","ADMIN_NAME":"Kigoma","FIPS_CNTRY":"TZ","CNTRY_NAME":"Tanzania","STATUS":"Provincial capital","POP":164268,"POP_RANK":5,"POP_CLASS":"100,000 to 249,999","PORT_ID":0,"LABEL_FLAG":1},"id":2154},
{"type":"Feature","geometry":{"type":"Point","coordinates":[158.72000431467816,53.19999908133208]},"properties":{"ObjectID":2244,"CITY_NAME":"Petropavloski-Kamchatskiy","GMI_ADMIN":"RUS-KAM","ADMIN_NAME":"Kamchatskaya oblast'","FIPS_CNTRY":"RS","CNTRY_NAME":"Russia","STATUS":"Provincial capital","POP":187282,"POP_RANK":5,"POP_CLASS":"100,000 to 249,999","PORT_ID":62600,"LABEL_FLAG":0},"id":2155},
{"type":"Feature","geometry":{"type":"Point","coordinates":[109.80800135968516,40.659003004931165]},"properties":{"ObjectID":2139,"CITY_NAME":"Baotou","GMI_ADMIN":"CHN-NMN","ADMIN_NAME":"Nei Mongol","FIPS_CNTRY":"CH","CNTRY_NAME":"China","STATUS":"Other","POP":1301768,"POP_RANK":2,"POP_CLASS":"1,000,000 to 4,999,999","PORT_ID":0,"LABEL_FLAG":0},"id":2156},
{"type":"Feature","geometry":{"type":"Point","coordinates":[103.92800437883685,12.534003003777975]},"properties":{"ObjectID":2032,"CITY_NAME":"Pouthisat","GMI_ADMIN":"KHM-PTH","ADMIN_NAME":"Pouthisat","FIPS_CNTRY":"CB","CNTRY_NAME":"Cambodia","STATUS":"Provincial capital","POP":52476,"POP_RANK":6,"POP_CLASS":"50,000 to 99,999","PORT_ID":0,"LABEL_FLAG":1},"id":2157},
{"type":"Feature","geometry":{"type":"Point","coordinates":[47.0780013377846,-21.459995934242883]},"properties":{"ObjectID":2457,"CITY_NAME":"Fianarantsoa","GMI_ADMIN":"MDG-FNR","ADMIN_NAME":"Fianarantsoa","FIPS_CNTRY":"MA","CNTRY_NAME":"Madagascar","STATUS":"Provincial capital","POP":167227,"POP_RANK":5,"POP_CLASS":"100,000 to 249,999","PORT_ID":0,"LABEL_FLAG":1},"id":2158},
{"type":"Feature","geometry":{"type":"Point","coordinates":[30.326004314868047,-2.855996980701869]},"properties":{"ObjectID":2362,"CITY_NAME":"Muyinga","GMI_ADMIN":"BDI-MYN","ADMIN_NAME":"Muyinga","FIPS_CNTRY":"BY","CNTRY_NAME":"Burundi","STATUS":"Provincial capital","POP":71076,"POP_RANK":6,"POP_CLASS":"50,000 to 99,999","PORT_ID":0,"LABEL_FLAG":1},"id":2159},
{"type":"Feature","geometry":{"type":"Point","coordinates":[135.12699937446635,48.43199701777748]},"properties":{"ObjectID":2245,"CITY_NAME":"Khabarovsk","GMI_ADMIN":"RUS-KHA","ADMIN_NAME":"Khabarovskiy kray","FIPS_CNTRY":"RS","CNTRY_NAME":"Russia","STATUS":"Provincial capital","POP":579000,"POP_RANK":3,"POP_CLASS":"500,000 to 999,999","PORT_ID":60830,"LABEL_FLAG":0},"id":2160},
{"type":"Feature","geometry":{"type":"Point","coordinates":[102.50900136404593,12.23700302701293]},"properties":{"ObjectID":2033,"CITY_NAME":"Trat","GMI_ADMIN":"THA-TRA","ADMIN_NAME":"Trat","FIPS_CNTRY":"TH","CNTRY_NAME":"Thailand","STATUS":"Provincial capital","POP":21590,"POP_RANK":7,"POP_CLASS":"Less than 50,000","PORT_ID":0,"LABEL_FLAG":1},"id":2161},
{"type":"Feature","geometry":{"type":"Point","coordinates":[100.3519983217412,-0.9539999544225819]},"properties":{"ObjectID":2458,"CITY_NAME":"Padang","GMI_ADMIN":"IDN-SBA","ADMIN_NAME":"Sumatera Barat","FIPS_CNTRY":"ID","CNTRY_NAME":"Indonesia","STATUS":"Provincial capital","POP":840352,"POP_RANK":3,"POP_CLASS":"500,000 to 999,999","PORT_ID":50450,"LABEL_FLAG":0},"id":2162},
{"type":"Feature","geometry":{"type":"Point","coordinates":[104.07099632636962,30.670001923726453]},"properties":{"ObjectID":2140,"CITY_NAME":"Chengdu","GMI_ADMIN":"CHN-SCH","ADMIN_NAME":"Sichuan","FIPS_CNTRY":"CH","CNTRY_NAME":"China","STATUS":"Provincial capital","POP":3950437,"POP_RANK":2,"POP_CLASS":"1,000,000 to 4,999,999","PORT_ID":0,"LABEL_FLAG":0},"id":2163},
{"type":"Feature","geometry":{"type":"Point","coordinates":[29.566701410440718,-2.899997927258427]},"properties":{"ObjectID":2363,"CITY_NAME":"Kayanza","GMI_ADMIN":"BDI-KYN","ADMIN_NAME":"Kayanza","FIPS_CNTRY":"BY","CNTRY_NAME":"Burundi","STATUS":"Provincial capital","POP":19443,"POP_RANK":7,"POP_CLASS":"Less than 50,000","PORT_ID":0,"LABEL_FLAG":1},"id":2164},
{"type":"Feature","geometry":{"type":"Point","coordinates":[106.5226953164544,29.544102076497193]},"properties":{"ObjectID":2141,"CITY_NAME":"Chongqing","GMI_ADMIN":"CHN-SCH","ADMIN_NAME":"Sichuan","FIPS_CNTRY":"CH","CNTRY_NAME":"China","STATUS":"Other","POP":3967028,"POP_RANK":2,"POP_CLASS":"1,000,000 to 4,999,999","PORT_ID":0,"LABEL_FLAG":0},"id":2165},
{"type":"Feature","geometry":{"type":"Point","coordinates":[103.04263833971423,11.613933055548014]},"properties":{"ObjectID":2034,"CITY_NAME":"Krong Kaoh Kong","GMI_ADMIN":"KHM-KKO","ADMIN_NAME":"Kaoh Kong","FIPS_CNTRY":"CB","CNTRY_NAME":"Cambodia","STATUS":"Provincial capital","POP":33134,"POP_RANK":7,"POP_CLASS":"Less than 50,000","PORT_ID":0,"LABEL_FLAG":0},"id":2166},
{"type":"Feature","geometry":{"type":"Point","coordinates":[142.74999932971437,46.96000199826633]},"properties":{"ObjectID":2246,"CITY_NAME":"Yuzhno-Sakhalinsk","GMI_ADMIN":"RUS-SAK","ADMIN_NAME":"Sakhalinskaya oblast'","FIPS_CNTRY":"RS","CNTRY_NAME":"Russia","STATUS":"Provincial capital","POP":176484,"POP_RANK":5,"POP_CLASS":"100,000 to 249,999","PORT_ID":0,"LABEL_FLAG":0},"id":2167},
{"type":"Feature","geometry":{"type":"Point","coordinates":[107.60699737082389,-6.91199997473675]},"properties":{"ObjectID":2459,"CITY_NAME":"Bandung","GMI_ADMIN":"IDN-JBA","ADMIN_NAME":"Jawa Barat","FIPS_CNTRY":"ID","CNTRY_NAME":"Indonesia","STATUS":"Provincial capital","POP":1699719,"POP_RANK":2,"POP_CLASS":"1,000,000 to 4,999,999","PORT_ID":0,"LABEL_FLAG":0},"id":2168},
{"type":"Feature","geometry":{"type":"Point","coordinates":[29.825001378699625,-2.9120039322063827]},"properties":{"ObjectID":2364,"CITY_NAME":"Ngozi","GMI_ADMIN":"BDI-NGO","ADMIN_NAME":"Ngozi","FIPS_CNTRY":"BY","CNTRY_NAME":"Burundi","STATUS":"Provincial capital","POP":21506,"POP_RANK":7,"POP_CLASS":"Less than 50,000","PORT_ID":0,"LABEL_FLAG":1},"id":2169},
{"type":"Feature","geometry":{"type":"Point","coordinates":[102.83699742305353,16.433001059515128]},"properties":{"ObjectID":2035,"CITY_NAME":"Khon Kaen","GMI_ADMIN":"THA-KKA","ADMIN_NAME":"Khon Kaen","FIPS_CNTRY":"TH","CNTRY_NAME":"Thailand","STATUS":"Provincial capital","POP":147579,"POP_RANK":5,"POP_CLASS":"100,000 to 249,999","PORT_ID":0,"LABEL_FLAG":1},"id":2170},
{"type":"Feature","geometry":{"type":"Point","coordinates":[106.70000443778329,26.57199603283441]},"properties":{"ObjectID":2142,"CITY_NAME":"Guiyang","GMI_ADMIN":"CHN-GUI","ADMIN_NAME":"Guizhou","FIPS_CNTRY":"CH","CNTRY_NAME":"China","STATUS":"Provincial capital","POP":1171633,"POP_RANK":2,"POP_CLASS":"1,000,000 to 4,999,999","PORT_ID":0,"LABEL_FLAG":0},"id":2171},
{"type":"Feature","geometry":{"type":"Point","coordinates":[159.9830014160211,59.08300207284712]},"properties":{"ObjectID":2247,"CITY_NAME":"Palana","GMI_ADMIN":"RUS-KOR","ADMIN_NAME":"Koryakskiy avtonomnyy okrug","FIPS_CNTRY":"RS","CNTRY_NAME":"Russia","STATUS":"Provincial capital","POP":3671,"POP_RANK":7,"POP_CLASS":"Less than 50,000","PORT_ID":0,"LABEL_FLAG":0},"id":2172},
{"type":"Feature","geometry":{"type":"Point","coordinates":[110.42600438699353,-6.97100400079038]},"properties":{"ObjectID":2460,"CITY_NAME":"Semarang","GMI_ADMIN":"IDN-JTN","ADMIN_NAME":"Jawa Tengah","FIPS_CNTRY":"ID","CNTRY_NAME":"Indonesia","STATUS":"Provincial capital","POP":1288084,"POP_RANK":2,"POP_CLASS":"1,000,000 to 4,999,999","PORT_ID":51040,"LABEL_FLAG":0},"id":2173},
{"type":"Feature","geometry":{"type":"Point","coordinates":[29.366703321070077,-3.083301032201868]},"properties":{"ObjectID":2365,"CITY_NAME":"Bubanza","GMI_ADMIN":"BDI-BBN","ADMIN_NAME":"Bubanza","FIPS_CNTRY":"BY","CNTRY_NAME":"Burundi","STATUS":"Provincial capital","POP":12728,"POP_RANK":7,"POP_CLASS":"Less than 50,000","PORT_ID":0,"LABEL_FLAG":1},"id":2174},
{"type":"Feature","geometry":{"type":"Point","coordinates":[103.50900041604942,16.427996999149023]},"properties":{"ObjectID":2036,"CITY_NAME":"Kalasin","GMI_ADMIN":"THA-KLS","ADMIN_NAME":"Kalasin","FIPS_CNTRY":"TH","CNTRY_NAME":"Thailand","STATUS":"Provincial capital","POP":55102,"POP_RANK":6,"POP_CLASS":"50,000 to 99,999","PORT_ID":0,"LABEL_FLAG":1},"id":2175},
{"type":"Feature","geometry":{"type":"Point","coordinates":[177.48025244264605,64.7552700642248]},"properties":{"ObjectID":2248,"CITY_NAME":"Anadyr","GMI_ADMIN":"RUS-CHU","ADMIN_NAME":"Chukotskiy avtonomnyy okrug","FIPS_CNTRY":"RS","CNTRY_NAME":"Russia","STATUS":"Provincial capital","POP":10332,"POP_RANK":7,"POP_CLASS":"Less than 50,000","PORT_ID":0,"LABEL_FLAG":0},"id":2176},
{"type":"Feature","geometry":{"type":"Point","coordinates":[30.16299629135455,-3.099996016629067]},"properties":{"ObjectID":2366,"CITY_NAME":"Karusi","GMI_ADMIN":"BDI-KRZ","ADMIN_NAME":"Karuzi","FIPS_CNTRY":"BY","CNTRY_NAME":"Burundi","STATUS":"Provincial capital","POP":10705,"POP_RANK":7,"POP_CLASS":"Less than 50,000","PORT_ID":0,"LABEL_FLAG":0},"id":2177},
{"type":"Feature","geometry":{"type":"Point","coordinates":[103.29800428269809,16.183997963221813]},"properties":{"ObjectID":2037,"CITY_NAME":"Maha Sarakham","GMI_ADMIN":"THA-MSR","ADMIN_NAME":"Maha Sarakham","FIPS_CNTRY":"TH","CNTRY_NAME":"Thailand","STATUS":"Provincial capital","POP":51584,"POP_RANK":6,"POP_CLASS":"50,000 to 99,999","PORT_ID":0,"LABEL_FLAG":1},"id":2178},
{"type":"Feature","geometry":{"type":"Point","coordinates":[110.3689984106393,-7.796996985299686]},"properties":{"ObjectID":2461,"CITY_NAME":"Yogyakarta","GMI_ADMIN":"IDN-YGY","ADMIN_NAME":"Yogyakarta","FIPS_CNTRY":"ID","CNTRY_NAME":"Indonesia","STATUS":"Provincial capital","POP":636660,"POP_RANK":3,"POP_CLASS":"500,000 to 999,999","PORT_ID":0,"LABEL_FLAG":1},"id":2179},
{"type":"Feature","geometry":{"type":"Point","coordinates":[29.611998425015006,-3.2609970543256033]},"properties":{"ObjectID":2367,"CITY_NAME":"Muramvya","GMI_ADMIN":"BDI-MRM","ADMIN_NAME":"Muramvya","FIPS_CNTRY":"BY","CNTRY_NAME":"Burundi","STATUS":"Provincial capital","POP":18041,"POP_RANK":7,"POP_CLASS":"Less than 50,000","PORT_ID":0,"LABEL_FLAG":1},"id":2180},
{"type":"Feature","geometry":{"type":"Point","coordinates":[103.65499837424889,16.050995933218747]},"properties":{"ObjectID":2038,"CITY_NAME":"Roi Et","GMI_ADMIN":"THA-RET","ADMIN_NAME":"Roi Et","FIPS_CNTRY":"TH","CNTRY_NAME":"Thailand","STATUS":"Provincial capital","POP":39328,"POP_RANK":7,"POP_CLASS":"Less than 50,000","PORT_ID":0,"LABEL_FLAG":1},"id":2181},
{"type":"Feature","geometry":{"type":"Point","coordinates":[102.70199734335107,25.050996006400588]},"properties":{"ObjectID":2143,"CITY_NAME":"Kunming","GMI_ADMIN":"CHN-YNN","ADMIN_NAME":"Yunnan","FIPS_CNTRY":"CH","CNTRY_NAME":"China","STATUS":"Provincial capital","POP":1023674,"POP_RANK":2,"POP_CLASS":"1,000,000 to 4,999,999","PORT_ID":0,"LABEL_FLAG":0},"id":2182},
{"type":"Feature","geometry":{"type":"Point","coordinates":[29.356002320257435,-3.3720029963673364]},"properties":{"ObjectID":2368,"CITY_NAME":"Bujumbura","GMI_ADMIN":"BDI-BJM","ADMIN_NAME":"Bujumbura","FIPS_CNTRY":"BY","CNTRY_NAME":"Burundi","STATUS":"National and provincial capital","POP":331700,"POP_RANK":4,"POP_CLASS":"250,000 to 499,999","PORT_ID":0,"LABEL_FLAG":1},"id":2183},
{"type":"Feature","geometry":{"type":"Point","coordinates":[171.36765940836486,7.120980057836017]},"properties":{"ObjectID":2249,"CITY_NAME":"Majuro","GMI_ADMIN":"MHL","ADMIN_NAME":"Marshall Is.","FIPS_CNTRY":"RM","CNTRY_NAME":"Marshall Is.","STATUS":"National capital","POP":20500,"POP_RANK":7,"POP_CLASS":"Less than 50,000","PORT_ID":0,"LABEL_FLAG":0},"id":2184},
{"type":"Feature","geometry":{"type":"Point","coordinates":[102.04000230560368,15.79799706849396]},"properties":{"ObjectID":2039,"CITY_NAME":"Chaiyaphum","GMI_ADMIN":"THA-CHY","ADMIN_NAME":"Chaiyaphum","FIPS_CNTRY":"TH","CNTRY_NAME":"Thailand","STATUS":"Provincial capital","POP":58350,"POP_RANK":6,"POP_CLASS":"50,000 to 99,999","PORT_ID":0,"LABEL_FLAG":1},"id":2185},
{"type":"Feature","geometry":{"type":"Point","coordinates":[29.93329835324269,-3.4333019498047084]},"properties":{"ObjectID":2369,"CITY_NAME":"Gitega","GMI_ADMIN":"BDI-GIT","ADMIN_NAME":"Gitega","FIPS_CNTRY":"BY","CNTRY_NAME":"Burundi","STATUS":"Provincial capital","POP":23167,"POP_RANK":7,"POP_CLASS":"Less than 50,000","PORT_ID":0,"LABEL_FLAG":1},"id":2186},
{"type":"Feature","geometry":{"type":"Point","coordinates":[103.11200131185726,14.995998056161698]},"properties":{"ObjectID":2040,"CITY_NAME":"Buriram","GMI_ADMIN":"THA-BRR","ADMIN_NAME":"Buriram","FIPS_CNTRY":"TH","CNTRY_NAME":"Thailand","STATUS":"Provincial capital","POP":-999,"POP_RANK":7,"POP_CLASS":"Less than 50,000","PORT_ID":0,"LABEL_FLAG":1},"id":2187},
{"type":"Feature","geometry":{"type":"Point","coordinates":[30.243996405369476,-3.4810019525920946]},"properties":{"ObjectID":2370,"CITY_NAME":"Ruyigi","GMI_ADMIN":"BDI-RUY","ADMIN_NAME":"Ruyigi","FIPS_CNTRY":"BY","CNTRY_NAME":"Burundi","STATUS":"Provincial capital","POP":38458,"POP_RANK":7,"POP_CLASS":"Less than 50,000","PORT_ID":0,"LABEL_FLAG":1},"id":2188},
{"type":"Feature","geometry":{"type":"Point","coordinates":[108.2960013275326,22.838004050310193]},"properties":{"ObjectID":2144,"CITY_NAME":"Nanning","GMI_ADMIN":"CHN-GNG","ADMIN_NAME":"Guangxi","FIPS_CNTRY":"CH","CNTRY_NAME":"China","STATUS":"Provincial capital","POP":803788,"POP_RANK":3,"POP_CLASS":"500,000 to 999,999","PORT_ID":0,"LABEL_FLAG":0},"id":2189},
{"type":"Feature","geometry":{"type":"Point","coordinates":[133.9299903715237,-23.630004006345267]},"properties":{"ObjectID":2462,"CITY_NAME":"Alice Springs","GMI_ADMIN":"AUS-NTR","ADMIN_NAME":"Northern Territory","FIPS_CNTRY":"AS","CNTRY_NAME":"Australia","STATUS":"Other","POP":26188,"POP_RANK":7,"POP_CLASS":"Less than 50,000","PORT_ID":0,"LABEL_FLAG":0},"id":2190},
{"type":"Feature","geometry":{"type":"Point","coordinates":[158.21670628564235,6.966701959272195]},"properties":{"ObjectID":2250,"CITY_NAME":"Palikir","GMI_ADMIN":"FSM","ADMIN_NAME":"Micronesia","FIPS_CNTRY":"FM","CNTRY_NAME":"Micronesia","STATUS":"National capital","POP":4645,"POP_RANK":7,"POP_CLASS":"Less than 50,000","PORT_ID":0,"LABEL_FLAG":0},"id":2191},
{"type":"Feature","geometry":{"type":"Point","coordinates":[30.64899631350957,-0.6059969210354899]},"properties":{"ObjectID":2371,"CITY_NAME":"Mbarara","GMI_ADMIN":"UGA-STH","ADMIN_NAME":"Southern","FIPS_CNTRY":"UG","CNTRY_NAME":"Uganda","STATUS":"Provincial capital","POP":-999,"POP_RANK":7,"POP_CLASS":"Less than 50,000","PORT_ID":0,"LABEL_FLAG":0},"id":2192},
{"type":"Feature","geometry":{"type":"Point","coordinates":[172.92111342807752,1.3407569811548918]},"properties":{"ObjectID":2251,"CITY_NAME":"Tarawa","GMI_ADMIN":"KIR","ADMIN_NAME":"Kiribati","FIPS_CNTRY":"KR","CNTRY_NAME":"Kiribati","STATUS":"National capital","POP":44429,"POP_RANK":7,"POP_CLASS":"Less than 50,000","PORT_ID":56450,"LABEL_FLAG":0},"id":2193},
{"type":"Feature","geometry":{"type":"Point","coordinates":[104.93334044432848,22.83333294306609]},"properties":{"ObjectID":2145,"CITY_NAME":"Ha Giang","GMI_ADMIN":"VNM-HGN","ADMIN_NAME":"Ha Giang","FIPS_CNTRY":"VM","CNTRY_NAME":"Vietnam","STATUS":"Provincial capital","POP":32690,"POP_RANK":7,"POP_CLASS":"Less than 50,000","PORT_ID":0,"LABEL_FLAG":1},"id":2194},
{"type":"Feature","geometry":{"type":"Point","coordinates":[102.10200340620642,14.968998073317936]},"properties":{"ObjectID":2041,"CITY_NAME":"Nakhon Ratchasima","GMI_ADMIN":"THA-NRT","ADMIN_NAME":"Nakhon Ratchasima","FIPS_CNTRY":"TH","CNTRY_NAME":"Thailand","STATUS":"Provincial capital","POP":208781,"POP_RANK":5,"POP_CLASS":"100,000 to 249,999","PORT_ID":0,"LABEL_FLAG":1},"id":2195},
{"type":"Feature","geometry":{"type":"Point","coordinates":[103.49700334721908,14.886000075087223]},"properties":{"ObjectID":2042,"CITY_NAME":"Surin","GMI_ADMIN":"THA-SUR","ADMIN_NAME":"Surin","FIPS_CNTRY":"TH","CNTRY_NAME":"Thailand","STATUS":"Provincial capital","POP":46673,"POP_RANK":7,"POP_CLASS":"Less than 50,000","PORT_ID":0,"LABEL_FLAG":1},"id":2196},
{"type":"Feature","geometry":{"type":"Point","coordinates":[28.528002349931086,-0.7569989396010578]},"properties":{"ObjectID":2372,"CITY_NAME":"Buluko","GMI_ADMIN":"ZAR-KIV","ADMIN_NAME":"Kivu","FIPS_CNTRY":"CG","CNTRY_NAME":"Congo, DRC","STATUS":"Provincial capital","POP":-999,"POP_RANK":7,"POP_CLASS":"Less than 50,000","PORT_ID":0,"LABEL_FLAG":0},"id":2197},
{"type":"Feature","geometry":{"type":"Point","coordinates":[115.85300441374639,-31.956003036831785]},"properties":{"ObjectID":2463,"CITY_NAME":"Perth","GMI_ADMIN":"AUS-WAS","ADMIN_NAME":"Western Australia","FIPS_CNTRY":"AS","CNTRY_NAME":"Australia","STATUS":"Provincial capital","POP":1446704,"POP_RANK":2,"POP_CLASS":"1,000,000 to 4,999,999","PORT_ID":0,"LABEL_FLAG":0},"id":2198},
{"type":"Feature","geometry":{"type":"Point","coordinates":[106.26800438131576,22.66399798281602]},"properties":{"ObjectID":2146,"CITY_NAME":"Cao Bang","GMI_ADMIN":"VNM-CBA","ADMIN_NAME":"Cao Bang","FIPS_CNTRY":"VM","CNTRY_NAME":"Vietnam","STATUS":"Provincial capital","POP":41112,"POP_RANK":7,"POP_CLASS":"Less than 50,000","PORT_ID":0,"LABEL_FLAG":1},"id":2199},
{"type":"Feature","geometry":{"type":"Point","coordinates":[29.62999841357751,-1.5010020523306469]},"properties":{"ObjectID":2373,"CITY_NAME":"Ruhengeri","GMI_ADMIN":"RWA-RHN","ADMIN_NAME":"Ruhengeri","FIPS_CNTRY":"RW","CNTRY_NAME":"Rwanda","STATUS":"Provincial capital","POP":86685,"POP_RANK":6,"POP_CLASS":"50,000 to 99,999","PORT_ID":0,"LABEL_FLAG":1},"id":2200},
{"type":"Feature","geometry":{"type":"Point","coordinates":[141.34599029281927,43.055001022796986]},"properties":{"ObjectID":2252,"CITY_NAME":"Sapporo","GMI_ADMIN":"JPN-HKK","ADMIN_NAME":"Hokkaido","FIPS_CNTRY":"JA","CNTRY_NAME":"Japan","STATUS":"Provincial capital","POP":1883027,"POP_RANK":2,"POP_CLASS":"1,000,000 to 4,999,999","PORT_ID":0,"LABEL_FLAG":0},"id":2201},
{"type":"Feature","geometry":{"type":"Point","coordinates":[29.257002383163638,-1.6949970564854906]},"properties":{"ObjectID":2374,"CITY_NAME":"Gisenyi","GMI_ADMIN":"RWA-GSN","ADMIN_NAME":"Gisenyi","FIPS_CNTRY":"RW","CNTRY_NAME":"Rwanda","STATUS":"Provincial capital","POP":83623,"POP_RANK":6,"POP_CLASS":"50,000 to 99,999","PORT_ID":0,"LABEL_FLAG":1},"id":2202},
{"type":"Feature","geometry":{"type":"Point","coordinates":[104.9667034393465,13.816700934731152]},"properties":{"ObjectID":2043,"CITY_NAME":"Phnum Tbeng Meanchey","GMI_ADMIN":"KHM-PVI","ADMIN_NAME":"Preah Vihear","FIPS_CNTRY":"CB","CNTRY_NAME":"Cambodia","STATUS":"Provincial capital","POP":24380,"POP_RANK":7,"POP_CLASS":"Less than 50,000","PORT_ID":0,"LABEL_FLAG":0},"id":2203},
{"type":"Feature","geometry":{"type":"Point","coordinates":[140.75000139119103,40.81666507883895]},"properties":{"ObjectID":2253,"CITY_NAME":"Aomori","GMI_ADMIN":"JPN-THO","ADMIN_NAME":"Tohoku","FIPS_CNTRY":"JA","CNTRY_NAME":"Japan","STATUS":"Other","POP":298394,"POP_RANK":4,"POP_CLASS":"250,000 to 499,999","PORT_ID":61270,"LABEL_FLAG":0},"id":2204},
{"type":"Feature","geometry":{"type":"Point","coordinates":[103.95000030131453,22.50000003605402]},"properties":{"ObjectID":2147,"CITY_NAME":"Lao Cai","GMI_ADMIN":"VNM-LCA","ADMIN_NAME":"Lao Cai","FIPS_CNTRY":"VM","CNTRY_NAME":"Vietnam","STATUS":"Provincial capital","POP":36502,"POP_RANK":7,"POP_CLASS":"Less than 50,000","PORT_ID":0,"LABEL_FLAG":1},"id":2205},
{"type":"Feature","geometry":{"type":"Point","coordinates":[29.349999400525263,-2.0500020344544474]},"properties":{"ObjectID":2375,"CITY_NAME":"Kibuye","GMI_ADMIN":"RWA-KIB","ADMIN_NAME":"Kibuye","FIPS_CNTRY":"RW","CNTRY_NAME":"Rwanda","STATUS":"Provincial capital","POP":48024,"POP_RANK":7,"POP_CLASS":"Less than 50,000","PORT_ID":0,"LABEL_FLAG":1},"id":2206},
{"type":"Feature","geometry":{"type":"Point","coordinates":[105.97400131361618,13.523004011800806]},"properties":{"ObjectID":2044,"CITY_NAME":"Stoeng Treng","GMI_ADMIN":"KHM-STR","ADMIN_NAME":"Stoeng Treng","FIPS_CNTRY":"CB","CNTRY_NAME":"Cambodia","STATUS":"Provincial capital","POP":-999,"POP_RANK":7,"POP_CLASS":"Less than 50,000","PORT_ID":0,"LABEL_FLAG":1},"id":2207},
{"type":"Feature","geometry":{"type":"Point","coordinates":[140.89101332674326,38.25399605666648]},"properties":{"ObjectID":2254,"CITY_NAME":"Sendai","GMI_ADMIN":"JPN-THO","ADMIN_NAME":"Tohoku","FIPS_CNTRY":"JA","CNTRY_NAME":"Japan","STATUS":"Provincial capital","POP":73132,"POP_RANK":6,"POP_CLASS":"50,000 to 99,999","PORT_ID":0,"LABEL_FLAG":0},"id":2208},
{"type":"Feature","geometry":{"type":"Point","coordinates":[115.9345713092936,-32.044166938447134]},"properties":{"ObjectID":2464,"CITY_NAME":"Fremantle","GMI_ADMIN":"AUS-WAS","ADMIN_NAME":"Western Australia","FIPS_CNTRY":"AS","CNTRY_NAME":"Australia","STATUS":"Other","POP":-999,"POP_RANK":7,"POP_CLASS":"Less than 50,000","PORT_ID":54520,"LABEL_FLAG":0},"id":2209},
{"type":"Feature","geometry":{"type":"Point","coordinates":[29.566701410440718,-2.483297993455982]},"properties":{"ObjectID":2376,"CITY_NAME":"Gikongoro","GMI_ADMIN":"RWA-GKN","ADMIN_NAME":"Gikongoro","FIPS_CNTRY":"RW","CNTRY_NAME":"Rwanda","STATUS":"Provincial capital","POP":-999,"POP_RANK":7,"POP_CLASS":"Less than 50,000","PORT_ID":0,"LABEL_FLAG":1},"id":2210},
{"type":"Feature","geometry":{"type":"Point","coordinates":[104.88899744304862,12.711996069069704]},"properties":{"ObjectID":2045,"CITY_NAME":"Kampong Thum","GMI_ADMIN":"KHM-KTH","ADMIN_NAME":"Kampong Thum","FIPS_CNTRY":"CB","CNTRY_NAME":"Cambodia","STATUS":"Provincial capital","POP":19951,"POP_RANK":7,"POP_CLASS":"Less than 50,000","PORT_ID":0,"LABEL_FLAG":1},"id":2211},
{"type":"Feature","geometry":{"type":"Point","coordinates":[28.88979331630685,-2.496069029359739]},"properties":{"ObjectID":2377,"CITY_NAME":"Cyangugu","GMI_ADMIN":"RWA-CYN","ADMIN_NAME":"Cyangugu","FIPS_CNTRY":"RW","CNTRY_NAME":"Rwanda","STATUS":"Provincial capital","POP":63883,"POP_RANK":6,"POP_CLASS":"50,000 to 99,999","PORT_ID":0,"LABEL_FLAG":1},"id":2212},
{"type":"Feature","geometry":{"type":"Point","coordinates":[106.02399640927095,12.468996057992186]},"properties":{"ObjectID":2046,"CITY_NAME":"Kracheh","GMI_ADMIN":"KHM-KRC","ADMIN_NAME":"Kracheh","FIPS_CNTRY":"CB","CNTRY_NAME":"Cambodia","STATUS":"Provincial capital","POP":19975,"POP_RANK":7,"POP_CLASS":"Less than 50,000","PORT_ID":0,"LABEL_FLAG":1},"id":2213},
{"type":"Feature","geometry":{"type":"Point","coordinates":[145.73500234234544,15.149996983792695]},"properties":{"ObjectID":2255,"CITY_NAME":"Saipan","GMI_ADMIN":"MNP","ADMIN_NAME":"Northern Mariana Is.","FIPS_CNTRY":"CQ","CNTRY_NAME":"Northern Mariana Is.","STATUS":"National and provincial capital","POP":-999,"POP_RANK":7,"POP_CLASS":"Less than 50,000","PORT_ID":0,"LABEL_FLAG":0},"id":2214},
{"type":"Feature","geometry":{"type":"Point","coordinates":[121.59819939883211,39.03172192588885]},"properties":{"ObjectID":2148,"CITY_NAME":"Dalian","GMI_ADMIN":"CHN-LNN","ADMIN_NAME":"Liaoning","FIPS_CNTRY":"CH","CNTRY_NAME":"China","STATUS":"Other","POP":2035307,"POP_RANK":2,"POP_CLASS":"1,000,000 to 4,999,999","PORT_ID":60250,"LABEL_FLAG":0},"id":2215},
{"type":"Feature","geometry":{"type":"Point","coordinates":[30.062997329411047,-1.580003951162526]},"properties":{"ObjectID":2378,"CITY_NAME":"Byumba","GMI_ADMIN":"RWA-BYM","ADMIN_NAME":"Byumba","FIPS_CNTRY":"RW","CNTRY_NAME":"Rwanda","STATUS":"Provincial capital","POP":70593,"POP_RANK":6,"POP_CLASS":"50,000 to 99,999","PORT_ID":0,"LABEL_FLAG":1},"id":2216},
{"type":"Feature","geometry":{"type":"Point","coordinates":[30.0590013954959,-1.9500030725109523]},"properties":{"ObjectID":2379,"CITY_NAME":"Kigali","GMI_ADMIN":"RWA-KIG","ADMIN_NAME":"Kigali","FIPS_CNTRY":"RW","CNTRY_NAME":"Rwanda","STATUS":"National and provincial capital","POP":745261,"POP_RANK":3,"POP_CLASS":"500,000 to 999,999","PORT_ID":0,"LABEL_FLAG":1},"id":2217},
{"type":"Feature","geometry":{"type":"Point","coordinates":[104.66399742053366,12.257001065274855]},"properties":{"ObjectID":2047,"CITY_NAME":"Kampong Chnang","GMI_ADMIN":"KHM-KCN","ADMIN_NAME":"Kampong Chhnang","FIPS_CNTRY":"CB","CNTRY_NAME":"Cambodia","STATUS":"Provincial capital","POP":75244,"POP_RANK":6,"POP_CLASS":"50,000 to 99,999","PORT_ID":0,"LABEL_FLAG":0},"id":2218},
{"type":"Feature","geometry":{"type":"Point","coordinates":[96.8260773834108,-12.157532937743374]},"properties":{"ObjectID":2465,"CITY_NAME":"West Island","GMI_ADMIN":"CCK","ADMIN_NAME":"Cocos Is.","FIPS_CNTRY":"CK","CNTRY_NAME":"Cocos Is.","STATUS":"National and provincial capital","POP":-999,"POP_RANK":7,"POP_CLASS":"Less than 50,000","PORT_ID":0,"LABEL_FLAG":0},"id":2219},
{"type":"Feature","geometry":{"type":"Point","coordinates":[29.75799638321445,-2.0760029924485055]},"properties":{"ObjectID":2380,"CITY_NAME":"Gitarama","GMI_ADMIN":"RWA-GTR","ADMIN_NAME":"Gitarama","FIPS_CNTRY":"RW","CNTRY_NAME":"Rwanda","STATUS":"Provincial capital","POP":87613,"POP_RANK":6,"POP_CLASS":"50,000 to 99,999","PORT_ID":0,"LABEL_FLAG":1},"id":2220},
{"type":"Feature","geometry":{"type":"Point","coordinates":[144.7469914230547,13.46699706029628]},"properties":{"ObjectID":2256,"CITY_NAME":"Hagatna","GMI_ADMIN":"GUM","ADMIN_NAME":"Guam","FIPS_CNTRY":"GQ","CNTRY_NAME":"Guam","STATUS":"National and provincial capital","POP":1051,"POP_RANK":7,"POP_CLASS":"Less than 50,000","PORT_ID":0,"LABEL_FLAG":0},"id":2221},
{"type":"Feature","geometry":{"type":"Point","coordinates":[105.46499740801622,11.990997005268719]},"properties":{"ObjectID":2048,"CITY_NAME":"Kampong Cham","GMI_ADMIN":"KHM-KCH","ADMIN_NAME":"Kampong Cham","FIPS_CNTRY":"CB","CNTRY_NAME":"Cambodia","STATUS":"Provincial capital","POP":61750,"POP_RANK":6,"POP_CLASS":"50,000 to 99,999","PORT_ID":0,"LABEL_FLAG":1},"id":2222},
{"type":"Feature","geometry":{"type":"Point","coordinates":[30.533301391988545,-2.1666959808251547]},"properties":{"ObjectID":2381,"CITY_NAME":"Kibungo","GMI_ADMIN":"RWA-KBN","ADMIN_NAME":"Kibungo","FIPS_CNTRY":"RW","CNTRY_NAME":"Rwanda","STATUS":"Provincial capital","POP":46240,"POP_RANK":7,"POP_CLASS":"Less than 50,000","PORT_ID":0,"LABEL_FLAG":1},"id":2223},
{"type":"Feature","geometry":{"type":"Point","coordinates":[120.43413041467498,36.148355997942254]},"properties":{"ObjectID":2149,"CITY_NAME":"Qingdao","GMI_ADMIN":"CHN-SHD","ADMIN_NAME":"Shandong","FIPS_CNTRY":"CH","CNTRY_NAME":"China","STATUS":"Other","POP":1642245,"POP_RANK":2,"POP_CLASS":"1,000,000 to 4,999,999","PORT_ID":0,"LABEL_FLAG":0},"id":2224},
{"type":"Feature","geometry":{"type":"Point","coordinates":[29.732004361338003,-2.6000010414279537]},"properties":{"ObjectID":2382,"CITY_NAME":"Butare","GMI_ADMIN":"RWA-BUT","ADMIN_NAME":"Butare","FIPS_CNTRY":"RW","CNTRY_NAME":"Rwanda","STATUS":"Provincial capital","POP":89600,"POP_RANK":6,"POP_CLASS":"50,000 to 99,999","PORT_ID":0,"LABEL_FLAG":1},"id":2225},
{"type":"Feature","geometry":{"type":"Point","coordinates":[139.80900636524117,35.683002048058]},"properties":{"ObjectID":2257,"CITY_NAME":"Tokyo","GMI_ADMIN":"JPN-KNT","ADMIN_NAME":"Kanto","FIPS_CNTRY":"JA","CNTRY_NAME":"Japan","STATUS":"National and provincial capital","POP":8336599,"POP_RANK":1,"POP_CLASS":"5,000,000 and greater","PORT_ID":61380,"LABEL_FLAG":0},"id":2226},
{"type":"Feature","geometry":{"type":"Point","coordinates":[104.91318933368196,11.564739066286695]},"properties":{"ObjectID":2049,"CITY_NAME":"Phnom Penh","GMI_ADMIN":"KHM-PPE","ADMIN_NAME":"Phnum Penh","FIPS_CNTRY":"CB","CNTRY_NAME":"Cambodia","STATUS":"National and provincial capital","POP":1573544,"POP_RANK":2,"POP_CLASS":"1,000,000 to 4,999,999","PORT_ID":0,"LABEL_FLAG":0},"id":2227},
{"type":"Feature","geometry":{"type":"Point","coordinates":[42.539004332261385,-0.34599594624517643]},"properties":{"ObjectID":2383,"CITY_NAME":"Kismaayo","GMI_ADMIN":"SOM-JHO","ADMIN_NAME":"Jubbada Hoose","FIPS_CNTRY":"SO","CNTRY_NAME":"Somalia","STATUS":"Provincial capital","POP":-999,"POP_RANK":7,"POP_CLASS":"Less than 50,000","PORT_ID":0,"LABEL_FLAG":0},"id":2228},
{"type":"Feature","geometry":{"type":"Point","coordinates":[105.71670037020696,-10.416698957662849]},"properties":{"ObjectID":2466,"CITY_NAME":"The Settlement","GMI_ADMIN":"CXR","ADMIN_NAME":"Christmas I.","FIPS_CNTRY":"KT","CNTRY_NAME":"Christmas I.","STATUS":"National and provincial capital","POP":-999,"POP_RANK":7,"POP_CLASS":"Less than 50,000","PORT_ID":50910,"LABEL_FLAG":0},"id":2229},
{"type":"Feature","geometry":{"type":"Point","coordinates":[105.32400334469921,11.483999920002079]},"properties":{"ObjectID":2050,"CITY_NAME":"Prey Veng","GMI_ADMIN":"KHM-PVE","ADMIN_NAME":"Prey Veng","FIPS_CNTRY":"CB","CNTRY_NAME":"Cambodia","STATUS":"Provincial capital","POP":-999,"POP_RANK":7,"POP_CLASS":"Less than 50,000","PORT_ID":0,"LABEL_FLAG":1},"id":2230},
{"type":"Feature","geometry":{"type":"Point","coordinates":[139.72721441191763,35.50457707041613]},"properties":{"ObjectID":2258,"CITY_NAME":"Kawasaki","GMI_ADMIN":"JPN-KNT","ADMIN_NAME":"Kanto","FIPS_CNTRY":"JA","CNTRY_NAME":"Japan","STATUS":"Other","POP":1306785,"POP_RANK":2,"POP_CLASS":"1,000,000 to 4,999,999","PORT_ID":61385,"LABEL_FLAG":0},"id":2231},
{"type":"Feature","geometry":{"type":"Point","coordinates":[104.51899832170025,11.451996042275887]},"properties":{"ObjectID":2051,"CITY_NAME":"Kampong Spoe","GMI_ADMIN":"KHM-KSP","ADMIN_NAME":"Kampong Spoe","FIPS_CNTRY":"CB","CNTRY_NAME":"Cambodia","STATUS":"Provincial capital","POP":33231,"POP_RANK":7,"POP_CLASS":"Less than 50,000","PORT_ID":0,"LABEL_FLAG":1},"id":2232},
{"type":"Feature","geometry":{"type":"Point","coordinates":[37.3429983116381,-3.3389999283077767]},"properties":{"ObjectID":2384,"CITY_NAME":"Moshi","GMI_ADMIN":"TZA-KLM","ADMIN_NAME":"Kilimanjaro","FIPS_CNTRY":"TZ","CNTRY_NAME":"Tanzania","STATUS":"Provincial capital","POP":156959,"POP_RANK":5,"POP_CLASS":"100,000 to 249,999","PORT_ID":0,"LABEL_FLAG":0},"id":2233},
{"type":"Feature","geometry":{"type":"Point","coordinates":[119.30400030866932,26.071002032783603]},"properties":{"ObjectID":2150,"CITY_NAME":"Fuzhou","GMI_ADMIN":"CHN-FUJ","ADMIN_NAME":"Fujian","FIPS_CNTRY":"CH","CNTRY_NAME":"China","STATUS":"Provincial capital","POP":1179720,"POP_RANK":2,"POP_CLASS":"1,000,000 to 4,999,999","PORT_ID":59860,"LABEL_FLAG":0},"id":2234},
{"type":"Feature","geometry":{"type":"Point","coordinates":[139.6199973837336,35.43699602631381]},"properties":{"ObjectID":2259,"CITY_NAME":"Yokohama","GMI_ADMIN":"JPN-KNT","ADMIN_NAME":"Kanto","FIPS_CNTRY":"JA","CNTRY_NAME":"Japan","STATUS":"Other","POP":3574443,"POP_RANK":2,"POP_CLASS":"1,000,000 to 4,999,999","PORT_ID":61390,"LABEL_FLAG":0},"id":2235},
{"type":"Feature","geometry":{"type":"Point","coordinates":[36.67400132930888,-3.3660000766352023]},"properties":{"ObjectID":2385,"CITY_NAME":"Arusha","GMI_ADMIN":"TZA-ARS","ADMIN_NAME":"Arusha","FIPS_CNTRY":"TZ","CNTRY_NAME":"Tanzania","STATUS":"Provincial capital","POP":341136,"POP_RANK":4,"POP_CLASS":"250,000 to 499,999","PORT_ID":0,"LABEL_FLAG":1},"id":2236},
{"type":"Feature","geometry":{"type":"Point","coordinates":[106.14699942014309,11.32299904778923]},"properties":{"ObjectID":2052,"CITY_NAME":"Tay Ninh","GMI_ADMIN":"VNM-TNI","ADMIN_NAME":"Tay Ninh","FIPS_CNTRY":"VM","CNTRY_NAME":"Vietnam","STATUS":"Provincial capital","POP":-999,"POP_RANK":7,"POP_CLASS":"Less than 50,000","PORT_ID":0,"LABEL_FLAG":1},"id":2237},
{"type":"Feature","geometry":{"type":"Point","coordinates":[109.33900230124297,-0.02300394760367615]},"properties":{"ObjectID":2467,"CITY_NAME":"Pontianak","GMI_ADMIN":"IDN-KBA","ADMIN_NAME":"Kalimantan Barat","FIPS_CNTRY":"ID","CNTRY_NAME":"Indonesia","STATUS":"Provincial capital","POP":455173,"POP_RANK":4,"POP_CLASS":"250,000 to 499,999","PORT_ID":51941,"LABEL_FLAG":0},"id":2238},
{"type":"Feature","geometry":{"type":"Point","coordinates":[103.3667013485971,19.333295965782852]},"properties":{"ObjectID":2053,"CITY_NAME":"Xiangkhoang","GMI_ADMIN":"LAO-XNG","ADMIN_NAME":"Xiangkhoang","FIPS_CNTRY":"LA","CNTRY_NAME":"Laos","STATUS":"Provincial capital","POP":-999,"POP_RANK":7,"POP_CLASS":"Less than 50,000","PORT_ID":0,"LABEL_FLAG":1},"id":2239},
{"type":"Feature","geometry":{"type":"Point","coordinates":[103.61667633042008,-1.6000019894244242]},"properties":{"ObjectID":2468,"CITY_NAME":"Jambi","GMI_ADMIN":"IDN-JAM","ADMIN_NAME":"Jambi","FIPS_CNTRY":"ID","CNTRY_NAME":"Indonesia","STATUS":"Provincial capital","POP":420323,"POP_RANK":4,"POP_CLASS":"250,000 to 499,999","PORT_ID":0,"LABEL_FLAG":1},"id":2240},
{"type":"Feature","geometry":{"type":"Point","coordinates":[136.92100540548816,35.154998963562164]},"properties":{"ObjectID":2260,"CITY_NAME":"Nagoya","GMI_ADMIN":"JPN-CHB","ADMIN_NAME":"Chubu","FIPS_CNTRY":"JA","CNTRY_NAME":"Japan","STATUS":"Provincial capital","POP":2191279,"POP_RANK":2,"POP_CLASS":"1,000,000 to 4,999,999","PORT_ID":61480,"LABEL_FLAG":0},"id":2241},
{"type":"Feature","geometry":{"type":"Point","coordinates":[39.65489141107784,-4.050945050154661]},"properties":{"ObjectID":2386,"CITY_NAME":"Mombasa","GMI_ADMIN":"KEN-COA","ADMIN_NAME":"Coast","FIPS_CNTRY":"KE","CNTRY_NAME":"Kenya","STATUS":"Provincial capital","POP":799668,"POP_RANK":3,"POP_CLASS":"500,000 to 999,999","PORT_ID":47100,"LABEL_FLAG":0},"id":2242},
{"type":"Feature","geometry":{"type":"Point","coordinates":[121.5067233417809,25.035093026765583]},"properties":{"ObjectID":2151,"CITY_NAME":"Taipei","GMI_ADMIN":"CHN-TWN","ADMIN_NAME":"Taiwan","FIPS_CNTRY":"CH","CNTRY_NAME":"China","STATUS":"Provincial capital","POP":7871900,"POP_RANK":1,"POP_CLASS":"5,000,000 and greater","PORT_ID":0,"LABEL_FLAG":0},"id":2243},
{"type":"Feature","geometry":{"type":"Point","coordinates":[101.48400037889807,19.19500193384694]},"properties":{"ObjectID":2054,"CITY_NAME":"Muang Xaignabouri","GMI_ADMIN":"LAO-XGN","ADMIN_NAME":"Xaignabouri","FIPS_CNTRY":"LA","CNTRY_NAME":"Laos","STATUS":"Provincial capital","POP":-999,"POP_RANK":7,"POP_CLASS":"Less than 50,000","PORT_ID":0,"LABEL_FLAG":0},"id":2244},
{"type":"Feature","geometry":{"type":"Point","coordinates":[104.7570033740129,-2.9909970604043217]},"properties":{"ObjectID":2469,"CITY_NAME":"Palembang","GMI_ADMIN":"IDN-SST","ADMIN_NAME":"Sumatera Selatan","FIPS_CNTRY":"ID","CNTRY_NAME":"Indonesia","STATUS":"Provincial capital","POP":1441500,"POP_RANK":2,"POP_CLASS":"1,000,000 to 4,999,999","PORT_ID":50330,"LABEL_FLAG":0},"id":2245},
{"type":"Feature","geometry":{"type":"Point","coordinates":[135.7550014209057,35.009001005362684]},"properties":{"ObjectID":2261,"CITY_NAME":"Kyoto","GMI_ADMIN":"JPN-KIN","ADMIN_NAME":"Kinki","FIPS_CNTRY":"JA","CNTRY_NAME":"Japan","STATUS":"Other","POP":1459640,"POP_RANK":2,"POP_CLASS":"1,000,000 to 4,999,999","PORT_ID":0,"LABEL_FLAG":0},"id":2246},
{"type":"Feature","geometry":{"type":"Point","coordinates":[39.70522839597223,-5.058036069850526]},"properties":{"ObjectID":2387,"CITY_NAME":"Wete","GMI_ADMIN":"TZA-PNR","ADMIN_NAME":"Pemba North","FIPS_CNTRY":"TZ","CNTRY_NAME":"Tanzania","STATUS":"Provincial capital","POP":26450,"POP_RANK":7,"POP_CLASS":"Less than 50,000","PORT_ID":47025,"LABEL_FLAG":0},"id":2247},
{"type":"Feature","geometry":{"type":"Point","coordinates":[120.67028138807163,24.143642980917896]},"properties":{"ObjectID":2152,"CITY_NAME":"T'aichung","GMI_ADMIN":"CHN-TWN","ADMIN_NAME":"Taiwan","FIPS_CNTRY":"CH","CNTRY_NAME":"China","STATUS":"Other","POP":1040725,"POP_RANK":2,"POP_CLASS":"1,000,000 to 4,999,999","PORT_ID":57955,"LABEL_FLAG":0},"id":2248},
{"type":"Feature","geometry":{"type":"Point","coordinates":[102.2666763608137,-3.7999980173184484]},"properties":{"ObjectID":2470,"CITY_NAME":"Bengkulu","GMI_ADMIN":"IDN-BNG","ADMIN_NAME":"Bengkulu","FIPS_CNTRY":"ID","CNTRY_NAME":"Indonesia","STATUS":"Provincial capital","POP":309712,"POP_RANK":4,"POP_CLASS":"250,000 to 499,999","PORT_ID":50440,"LABEL_FLAG":1},"id":2249},
{"type":"Feature","geometry":{"type":"Point","coordinates":[102.68023541476728,18.001736998690358]},"properties":{"ObjectID":2055,"CITY_NAME":"Vientiane","GMI_ADMIN":"LAO-VNG","ADMIN_NAME":"Viangchan","FIPS_CNTRY":"LA","CNTRY_NAME":"Laos","STATUS":"National and provincial capital","POP":196731,"POP_RANK":5,"POP_CLASS":"100,000 to 249,999","PORT_ID":0,"LABEL_FLAG":1},"id":2250},
{"type":"Feature","geometry":{"type":"Point","coordinates":[135.22121137285276,34.690149076903374]},"properties":{"ObjectID":2262,"CITY_NAME":"Kobe","GMI_ADMIN":"JPN-KIN","ADMIN_NAME":"Kinki","FIPS_CNTRY":"JA","CNTRY_NAME":"Japan","STATUS":"Other","POP":1528478,"POP_RANK":2,"POP_CLASS":"1,000,000 to 4,999,999","PORT_ID":61560,"LABEL_FLAG":0},"id":2251},
{"type":"Feature","geometry":{"type":"Point","coordinates":[39.0989973797179,-5.068998038393529]},"properties":{"ObjectID":2388,"CITY_NAME":"Tanga","GMI_ADMIN":"TZA-TAN","ADMIN_NAME":"Tanga","FIPS_CNTRY":"TZ","CNTRY_NAME":"Tanzania","STATUS":"Provincial capital","POP":224876,"POP_RANK":5,"POP_CLASS":"100,000 to 249,999","PORT_ID":47030,"LABEL_FLAG":1},"id":2252},
{"type":"Feature","geometry":{"type":"Point","coordinates":[102.74699731475734,17.8839990159147]},"properties":{"ObjectID":2056,"CITY_NAME":"Nong Khai","GMI_ADMIN":"THA-NKH","ADMIN_NAME":"Nong Khai","FIPS_CNTRY":"TH","CNTRY_NAME":"Thailand","STATUS":"Provincial capital","POP":63609,"POP_RANK":6,"POP_CLASS":"50,000 to 99,999","PORT_ID":0,"LABEL_FLAG":1},"id":2253},
{"type":"Feature","geometry":{"type":"Point","coordinates":[135.51900335441,34.635996038831244]},"properties":{"ObjectID":2263,"CITY_NAME":"Osaka","GMI_ADMIN":"JPN-KIN","ADMIN_NAME":"Kinki","FIPS_CNTRY":"JA","CNTRY_NAME":"Japan","STATUS":"Provincial capital","POP":2592413,"POP_RANK":2,"POP_CLASS":"1,000,000 to 4,999,999","PORT_ID":61550,"LABEL_FLAG":0},"id":2254},
{"type":"Feature","geometry":{"type":"Point","coordinates":[101.73500135940711,17.489996986271613]},"properties":{"ObjectID":2057,"CITY_NAME":"Loei","GMI_ADMIN":"THA-LOE","ADMIN_NAME":"Loei","FIPS_CNTRY":"TH","CNTRY_NAME":"Thailand","STATUS":"Provincial capital","POP":35273,"POP_RANK":7,"POP_CLASS":"Less than 50,000","PORT_ID":0,"LABEL_FLAG":1},"id":2255},
{"type":"Feature","geometry":{"type":"Point","coordinates":[105.25400144014858,-5.408999936865414]},"properties":{"ObjectID":2471,"CITY_NAME":"Tanjungkarang-Telukbetung","GMI_ADMIN":"IDN-LMP","ADMIN_NAME":"Lampung","FIPS_CNTRY":"ID","CNTRY_NAME":"Indonesia","STATUS":"Provincial capital","POP":800348,"POP_RANK":3,"POP_CLASS":"500,000 to 999,999","PORT_ID":0,"LABEL_FLAG":0},"id":2256},
{"type":"Feature","geometry":{"type":"Point","coordinates":[120.20968840305832,23.015979077883078]},"properties":{"ObjectID":2153,"CITY_NAME":"T'ainan","GMI_ADMIN":"CHN-TWN","ADMIN_NAME":"Taiwan","FIPS_CNTRY":"CH","CNTRY_NAME":"China","STATUS":"Other","POP":764147,"POP_RANK":3,"POP_CLASS":"500,000 to 999,999","PORT_ID":0,"LABEL_FLAG":0},"id":2257},
{"type":"Feature","geometry":{"type":"Point","coordinates":[39.6666993320859,-5.3499960762954455]},"properties":{"ObjectID":2389,"CITY_NAME":"Mkoani","GMI_ADMIN":"TZA-PSO","ADMIN_NAME":"Pemba South","FIPS_CNTRY":"TZ","CNTRY_NAME":"Tanzania","STATUS":"Provincial capital","POP":-999,"POP_RANK":7,"POP_CLASS":"Less than 50,000","PORT_ID":0,"LABEL_FLAG":0},"id":2258},
{"type":"Feature","geometry":{"type":"Point","coordinates":[102.78999940194782,17.406998988040915]},"properties":{"ObjectID":2058,"CITY_NAME":"Udon Thani","GMI_ADMIN":"THA-UTA","ADMIN_NAME":"Udon Thani","FIPS_CNTRY":"TH","CNTRY_NAME":"Thailand","STATUS":"Provincial capital","POP":247231,"POP_RANK":5,"POP_CLASS":"100,000 to 249,999","PORT_ID":0,"LABEL_FLAG":1},"id":2259},
{"type":"Feature","geometry":{"type":"Point","coordinates":[136.76199331588978,35.409996043470045]},"properties":{"ObjectID":2264,"CITY_NAME":"Gifu","GMI_ADMIN":"JPN-CHB","ADMIN_NAME":"Chubu","FIPS_CNTRY":"JA","CNTRY_NAME":"Japan","STATUS":"Provincial capital","POP":397714,"POP_RANK":4,"POP_CLASS":"250,000 to 499,999","PORT_ID":62140,"LABEL_FLAG":0},"id":2260},
{"type":"Feature","geometry":{"type":"Point","coordinates":[106.33302936482036,20.45030404504391]},"properties":{"ObjectID":2059,"CITY_NAME":"Thai Binh","GMI_ADMIN":"VNM-TBI","ADMIN_NAME":"Thai Binh","FIPS_CNTRY":"VM","CNTRY_NAME":"Vietnam","STATUS":"Provincial capital","POP":53071,"POP_RANK":6,"POP_CLASS":"50,000 to 99,999","PORT_ID":0,"LABEL_FLAG":1},"id":2261},
{"type":"Feature","geometry":{"type":"Point","coordinates":[39.7070013878953,-10.001997073559801]},"properties":{"ObjectID":2390,"CITY_NAME":"Lindi","GMI_ADMIN":"TZA-LIN","ADMIN_NAME":"Lindi","FIPS_CNTRY":"TZ","CNTRY_NAME":"Tanzania","STATUS":"Provincial capital","POP":41912,"POP_RANK":7,"POP_CLASS":"Less than 50,000","PORT_ID":46980,"LABEL_FLAG":1},"id":2262},
{"type":"Feature","geometry":{"type":"Point","coordinates":[106.80000339972676,-6.1666650495191035]},"properties":{"ObjectID":2472,"CITY_NAME":"Jakarta","GMI_ADMIN":"IDN-JRA","ADMIN_NAME":"Jakarta Raya","FIPS_CNTRY":"ID","CNTRY_NAME":"Indonesia","STATUS":"National and provincial capital","POP":8540121,"POP_RANK":1,"POP_CLASS":"5,000,000 and greater","PORT_ID":50970,"LABEL_FLAG":0},"id":2263},
{"type":"Feature","geometry":{"type":"Point","coordinates":[120.28605331978318,22.608018005147922]},"properties":{"ObjectID":2154,"CITY_NAME":"Kaoshsiung","GMI_ADMIN":"CHN-TWN","ADMIN_NAME":"Taiwan","FIPS_CNTRY":"CH","CNTRY_NAME":"China","STATUS":"Other","POP":-999,"POP_RANK":7,"POP_CLASS":"Less than 50,000","PORT_ID":57920,"LABEL_FLAG":0},"id":2264},
{"type":"Feature","geometry":{"type":"Point","coordinates":[105.21099935295805,21.817998023927174]},"properties":{"ObjectID":2060,"CITY_NAME":"Tuyen Quang","GMI_ADMIN":"VNM-TQN","ADMIN_NAME":"Tuyen Quang","FIPS_CNTRY":"VM","CNTRY_NAME":"Vietnam","STATUS":"Provincial capital","POP":36430,"POP_RANK":7,"POP_CLASS":"Less than 50,000","PORT_ID":0,"LABEL_FLAG":1},"id":2265},
{"type":"Feature","geometry":{"type":"Point","coordinates":[118.76900438119291,32.048001066509975]},"properties":{"ObjectID":2155,"CITY_NAME":"Nanjing","GMI_ADMIN":"CHN-JNS","ADMIN_NAME":"Jiangsu","FIPS_CNTRY":"CH","CNTRY_NAME":"China","STATUS":"Provincial capital","POP":3087010,"POP_RANK":2,"POP_CLASS":"1,000,000 to 4,999,999","PORT_ID":60000,"LABEL_FLAG":0},"id":2266},
{"type":"Feature","geometry":{"type":"Point","coordinates":[40.184001415769075,-10.275003078147764]},"properties":{"ObjectID":2391,"CITY_NAME":"Mtwara","GMI_ADMIN":"TZA-MTW","ADMIN_NAME":"Mtwara","FIPS_CNTRY":"TZ","CNTRY_NAME":"Tanzania","STATUS":"Provincial capital","POP":96602,"POP_RANK":6,"POP_CLASS":"50,000 to 99,999","PORT_ID":46975,"LABEL_FLAG":1},"id":2267},
{"type":"Feature","geometry":{"type":"Point","coordinates":[104.87500232451887,21.70500296830362]},"properties":{"ObjectID":2061,"CITY_NAME":"Yen Bai","GMI_ADMIN":"VNM-YBA","ADMIN_NAME":"Yen Bai","FIPS_CNTRY":"VM","CNTRY_NAME":"Vietnam","STATUS":"Provincial capital","POP":96540,"POP_RANK":6,"POP_CLASS":"50,000 to 99,999","PORT_ID":0,"LABEL_FLAG":1},"id":2268},
{"type":"Feature","geometry":{"type":"Point","coordinates":[32.666697362911094,-18.966698985814652]},"properties":{"ObjectID":2265,"CITY_NAME":"Mutare","GMI_ADMIN":"ZWE-MNC","ADMIN_NAME":"Manicaland","FIPS_CNTRY":"ZI","CNTRY_NAME":"Zimbabwe","STATUS":"Provincial capital","POP":184205,"POP_RANK":5,"POP_CLASS":"100,000 to 249,999","PORT_ID":0,"LABEL_FLAG":0},"id":2269},
{"type":"Feature","geometry":{"type":"Point","coordinates":[117.27600336245247,31.86099907081937]},"properties":{"ObjectID":2156,"CITY_NAME":"Hefei","GMI_ADMIN":"CHN-ANH","ADMIN_NAME":"Anhui","FIPS_CNTRY":"CH","CNTRY_NAME":"China","STATUS":"Provincial capital","POP":1388904,"POP_RANK":2,"POP_CLASS":"1,000,000 to 4,999,999","PORT_ID":0,"LABEL_FLAG":0},"id":2270},
{"type":"Feature","geometry":{"type":"Point","coordinates":[119.85100240657735,-0.8990009638853755]},